,Median Age,Median Male Age,Median Female Age,Population,White Population,Black Population,Native American Population,Asian Population,Hispanic Population,Education None,Education High School,Education GED,Education Associates,Education Bachelors,Education Masters,Education Professional,Education Doctorate,Poverty,Household Income,Income Per Capita,Employment Labor Force,Employment Unemployed,Median Gross Rent,Median Home Value,zipcode,lat,lng,city,state,Google_URL,Count
0,43.3,42.3,44.3,20891,17585,2852,31,98,116,142,4308,1279,792,1870,511,129,39,5208,32448,19285,8176,437,565,66300,24701,37.305951,-81.204941,BLUEFIELD,WV,"https://maps.googleapis.com/maps/api/place/radarsearch/json?location=37.305951,-81.204941&radius=40233&keyword=Grocery&key=AIzaSyA_Clyz3478YAUnsESNHE5dyktvvMoa-vw",132
1,23.6,22.7,33.2,2007,1842,113,0,13,32,0,270,16,67,122,150,34,52,299,41339,18581,781,51,635,124500,24712,37.463059,-81.01501,ATHENS,WV,"https://maps.googleapis.com/maps/api/place/radarsearch/json?location=37.463059,-81.01501&radius=40233&keyword=Grocery&key=AIzaSyA_Clyz3478YAUnsESNHE5dyktvvMoa-vw",155
2,35.2,36,23.4,127,127,0,0,0,0,8,46,0,0,0,0,0,0,27,16694,13413,37,11,,82600,24714,37.484469,-81.190073,BEESON,WV,"https://maps.googleapis.com/maps/api/place/radarsearch/json?location=37.484469,-81.190073&radius=40233&keyword=Grocery&key=AIzaSyA_Clyz3478YAUnsESNHE5dyktvvMoa-vw",170
3,52.4,60,47.8,366,359,6,0,1,0,2,110,25,8,37,7,4,0,98,27500,18980,103,2,570,63800,24715,37.340392,-81.324618,BRAMWELL,WV,"https://maps.googleapis.com/maps/api/place/radarsearch/json?location=37.340392,-81.324618&radius=40233&keyword=Grocery&key=AIzaSyA_Clyz3478YAUnsESNHE5dyktvvMoa-vw",131
4,54.3,55.2,52,460,364,96,0,0,0,0,196,10,27,0,17,0,0,97,,24869,148,10,,,24716,37.480042,-81.371826,BUD,WV,"https://maps.googleapis.com/maps/api/place/radarsearch/json?location=37.480042,-81.371826&radius=40233&keyword=Grocery&key=AIzaSyA_Clyz3478YAUnsESNHE5dyktvvMoa-vw",140
5,29.9,29.5,76,216,216,0,0,0,0,0,99,0,0,0,0,0,0,110,,9508,27,14,,,24719,37.487167,-81.326725,COVEL,WV,"https://maps.googleapis.com/maps/api/place/radarsearch/json?location=37.487167,-81.326725&radius=40233&keyword=Grocery&key=AIzaSyA_Clyz3478YAUnsESNHE5dyktvvMoa-vw",141
6,39.3,36.5,57.8,53,53,0,0,0,0,0,7,3,0,5,0,0,0,15,,17383,17,2,580,53300,24724,37.330881,-81.299757,FREEMAN,WV,"https://maps.googleapis.com/maps/api/place/radarsearch/json?location=37.330881,-81.299757&radius=40233&keyword=Grocery&key=AIzaSyA_Clyz3478YAUnsESNHE5dyktvvMoa-vw",129
7,60.6,60.4,61,255,255,0,0,0,0,14,136,19,0,0,19,0,0,0,52978,16818,19,0,,132400,24726,37.514751,-81.352074,HERNDON,WV,"https://maps.googleapis.com/maps/api/place/radarsearch/json?location=37.514751,-81.352074&radius=40233&keyword=Grocery&key=AIzaSyA_Clyz3478YAUnsESNHE5dyktvvMoa-vw",133
8,49.2,49.1,50.1,163,163,0,0,0,0,0,42,28,0,0,0,0,0,110,,13676,28,0,,,24729,37.449867,-81.26001,HIAWATHA,WV,"https://maps.googleapis.com/maps/api/place/radarsearch/json?location=37.449867,-81.26001&radius=40233&keyword=Grocery&key=AIzaSyA_Clyz3478YAUnsESNHE5dyktvvMoa-vw",157
9,48.4,41.1,48.9,302,302,0,0,0,0,0,79,0,0,27,21,0,0,60,44417,17207,199,0,,,24731,37.397966,-81.151064,KEGLEY,WV,"https://maps.googleapis.com/maps/api/place/radarsearch/json?location=37.397966,-81.151064&radius=40233&keyword=Grocery&key=AIzaSyA_Clyz3478YAUnsESNHE5dyktvvMoa-vw",168
10,30.1,36.5,23.6,870,864,0,0,0,0,0,240,66,8,59,0,0,0,357,21490,14226,342,0,686,50000,24733,37.450768,-81.205194,LASHMEET,WV,"https://maps.googleapis.com/maps/api/place/radarsearch/json?location=37.450768,-81.205194&radius=40233&keyword=Grocery&key=AIzaSyA_Clyz3478YAUnsESNHE5dyktvvMoa-vw",171
11,47.6,46.5,51.8,497,494,0,0,0,15,7,213,58,4,13,0,0,0,91,33125,15479,184,10,336,44000,24736,37.444189,-81.2774,MATOAKA,WV,"https://maps.googleapis.com/maps/api/place/radarsearch/json?location=37.444189,-81.2774&radius=40233&keyword=Grocery&key=AIzaSyA_Clyz3478YAUnsESNHE5dyktvvMoa-vw",153
12,35.8,35.8,34,72,72,0,0,0,0,0,18,0,0,0,0,0,0,0,,23092,53,0,,,24737,37.352245,-81.249309,MONTCALM,WV,"https://maps.googleapis.com/maps/api/place/radarsearch/json?location=37.352245,-81.249309&radius=40233&keyword=Grocery&key=AIzaSyA_Clyz3478YAUnsESNHE5dyktvvMoa-vw",131
13,70.7,65.7,71,168,168,0,0,0,0,0,52,0,6,19,6,0,0,18,33831,21396,21,0,415,,24738,37.302041,-81.3097,NEMOURS,WV,"https://maps.googleapis.com/maps/api/place/radarsearch/json?location=37.302041,-81.3097&radius=40233&keyword=Grocery&key=AIzaSyA_Clyz3478YAUnsESNHE5dyktvvMoa-vw",135
14,43,41.1,45.7,30588,28739,606,107,293,373,224,6624,1614,1521,2916,947,471,138,5618,39147,23311,12909,664,611,102600,24740,37.373474,-81.005001,PRINCETON,WV,"https://maps.googleapis.com/maps/api/place/radarsearch/json?location=37.373474,-81.005001&radius=40233&keyword=Grocery&key=AIzaSyA_Clyz3478YAUnsESNHE5dyktvvMoa-vw",151
15,36.3,35.7,39.1,3091,3041,5,21,0,0,9,752,166,99,103,27,9,14,720,31435,15581,953,39,584,68500,24747,37.378752,-81.299696,ROCK,WV,"https://maps.googleapis.com/maps/api/place/radarsearch/json?location=37.378752,-81.299696&radius=40233&keyword=Grocery&key=AIzaSyA_Clyz3478YAUnsESNHE5dyktvvMoa-vw",139
16,36.6,35.9,41,4849,3738,883,24,0,232,6,1023,668,130,154,92,25,0,1208,29209,13714,1123,143,460,45200,24801,37.448883,-81.576989,WELCH,WV,"https://maps.googleapis.com/maps/api/place/radarsearch/json?location=37.448883,-81.576989&radius=40233&keyword=Grocery&key=AIzaSyA_Clyz3478YAUnsESNHE5dyktvvMoa-vw",153
17,47.8,48.9,47.2,634,609,25,0,0,0,0,174,40,15,21,4,0,4,142,30469,17865,203,28,519,36500,24808,37.330026,-81.422403,ANAWALT,WV,"https://maps.googleapis.com/maps/api/place/radarsearch/json?location=37.330026,-81.422403&radius=40233&keyword=Grocery&key=AIzaSyA_Clyz3478YAUnsESNHE5dyktvvMoa-vw",135
18,40.9,40.3,48.4,530,530,0,0,0,0,0,206,66,45,26,0,0,0,150,25455,22982,253,75,,42600,24811,37.399166,-81.771251,AVONDALE,WV,"https://maps.googleapis.com/maps/api/place/radarsearch/json?location=37.399166,-81.771251&radius=40233&keyword=Grocery&key=AIzaSyA_Clyz3478YAUnsESNHE5dyktvvMoa-vw",86
19,47.4,46.5,62.4,411,411,0,0,0,0,34,131,69,0,10,0,0,0,140,23618,12800,199,10,,31200,24813,37.357412,-81.720113,BARTLEY,WV,"https://maps.googleapis.com/maps/api/place/radarsearch/json?location=37.357412,-81.720113&radius=40233&keyword=Grocery&key=AIzaSyA_Clyz3478YAUnsESNHE5dyktvvMoa-vw",88
20,25.4,23.7,25.7,950,950,0,0,0,0,0,155,102,36,0,13,0,0,575,26076,11743,250,87,520,28100,24815,37.241667,-81.659603,BERWIND,WV,"https://maps.googleapis.com/maps/api/place/radarsearch/json?location=37.241667,-81.659603&radius=40233&keyword=Grocery&key=AIzaSyA_Clyz3478YAUnsESNHE5dyktvvMoa-vw",132
21,80.8,80.4,83.3,185,133,52,0,0,0,0,52,8,0,0,0,0,0,12,35833,20679,12,0,,,24816,37.461102,-81.705939,BIG SANDY,WV,"https://maps.googleapis.com/maps/api/place/radarsearch/json?location=37.461102,-81.705939&radius=40233&keyword=Grocery&key=AIzaSyA_Clyz3478YAUnsESNHE5dyktvvMoa-vw",87
22,41.6,54,37,771,771,0,0,0,0,3,167,31,7,17,0,2,0,338,18514,11615,136,43,571,51800,24817,37.352268,-81.80478,BRADSHAW,WV,"https://maps.googleapis.com/maps/api/place/radarsearch/json?location=37.352268,-81.80478&radius=40233&keyword=Grocery&key=AIzaSyA_Clyz3478YAUnsESNHE5dyktvvMoa-vw",81
23,35.3,41.6,34.3,1045,1045,0,0,0,0,9,229,86,0,22,8,0,0,582,16616,9654,168,18,,37200,24818,37.602702,-81.624946,BRENTON,WV,"https://maps.googleapis.com/maps/api/place/radarsearch/json?location=37.602702,-81.624946&radius=40233&keyword=Grocery&key=AIzaSyA_Clyz3478YAUnsESNHE5dyktvvMoa-vw",117
24,39.3,29.6,42.7,677,677,0,0,0,0,0,188,0,48,25,0,0,0,103,53333,17328,250,71,630,,24822,37.647094,-81.697294,CLEAR FORK,WV,"https://maps.googleapis.com/maps/api/place/radarsearch/json?location=37.647094,-81.697294&radius=40233&keyword=Grocery&key=AIzaSyA_Clyz3478YAUnsESNHE5dyktvvMoa-vw",82
25,30.8,29.1,53.3,519,511,8,0,0,0,0,165,0,9,0,0,0,0,81,29271,13733,112,0,,43800,24823,37.67197,-81.751948,COAL MOUNTAIN,WV,"https://maps.googleapis.com/maps/api/place/radarsearch/json?location=37.67197,-81.751948&radius=40233&keyword=Grocery&key=AIzaSyA_Clyz3478YAUnsESNHE5dyktvvMoa-vw",77
26,54.2,46.5,64.5,71,71,0,0,0,0,0,22,8,0,0,0,0,0,14,25714,29485,13,0,,,24826,37.293267,-81.623592,CUCUMBER,WV,"https://maps.googleapis.com/maps/api/place/radarsearch/json?location=37.293267,-81.623592&radius=40233&keyword=Grocery&key=AIzaSyA_Clyz3478YAUnsESNHE5dyktvvMoa-vw",97
27,44.5,44.4,44.7,1717,1700,0,0,0,0,9,398,61,54,18,0,27,0,191,48672,18906,587,0,,30400,24827,37.75327,-81.64148,CYCLONE,WV,"https://maps.googleapis.com/maps/api/place/radarsearch/json?location=37.75327,-81.64148&radius=40233&keyword=Grocery&key=AIzaSyA_Clyz3478YAUnsESNHE5dyktvvMoa-vw",100
28,45.7,44.3,47.4,815,815,0,0,0,0,0,160,41,35,15,2,0,0,271,19712,11976,174,28,495,29200,24828,37.4989,-81.636635,DAVY,WV,"https://maps.googleapis.com/maps/api/place/radarsearch/json?location=37.4989,-81.636635&radius=40233&keyword=Grocery&key=AIzaSyA_Clyz3478YAUnsESNHE5dyktvvMoa-vw",115
29,52.6,48.5,52.7,84,82,2,0,0,0,0,37,0,3,5,0,0,0,8,,24558,33,4,,32500,24830,37.323125,-81.506122,ELBERT,WV,"https://maps.googleapis.com/maps/api/place/radarsearch/json?location=37.323125,-81.506122&radius=40233&keyword=Grocery&key=AIzaSyA_Clyz3478YAUnsESNHE5dyktvvMoa-vw",116
30,58.8,56.7,58.9,136,112,24,0,0,0,0,21,0,18,0,6,0,0,48,23125,20906,48,0,,42500,24831,37.394105,-81.411521,ELKHORN,WV,"https://maps.googleapis.com/maps/api/place/radarsearch/json?location=37.394105,-81.411521&radius=40233&keyword=Grocery&key=AIzaSyA_Clyz3478YAUnsESNHE5dyktvvMoa-vw",133
31,35.1,46,29.3,324,324,0,0,0,0,0,101,38,22,0,0,0,0,38,50893,14555,108,12,,67700,24834,37.547689,-81.630566,FANROCK,WV,"https://maps.googleapis.com/maps/api/place/radarsearch/json?location=37.547689,-81.630566&radius=40233&keyword=Grocery&key=AIzaSyA_Clyz3478YAUnsESNHE5dyktvvMoa-vw",127
32,53.6,50.8,59.7,549,377,141,0,0,0,0,228,19,14,39,7,0,4,65,32105,15694,136,7,625,23500,24836,37.333874,-81.55862,GARY,WV,"https://maps.googleapis.com/maps/api/place/radarsearch/json?location=37.333874,-81.55862&radius=40233&keyword=Grocery&key=AIzaSyA_Clyz3478YAUnsESNHE5dyktvvMoa-vw",116
33,41.9,47.1,38.6,1497,1497,0,0,0,0,0,424,107,54,0,18,0,0,418,30057,19518,363,63,539,57400,24839,37.560676,-81.738389,HANOVER,WV,"https://maps.googleapis.com/maps/api/place/radarsearch/json?location=37.560676,-81.738389&radius=40233&keyword=Grocery&key=AIzaSyA_Clyz3478YAUnsESNHE5dyktvvMoa-vw",82
34,61.3,61,61.5,89,89,0,0,0,0,0,26,0,0,11,0,0,0,25,,19352,14,0,,75400,24843,37.487144,-81.7101,HENSLEY,WV,"https://maps.googleapis.com/maps/api/place/radarsearch/json?location=37.487144,-81.7101&radius=40233&keyword=Grocery&key=AIzaSyA_Clyz3478YAUnsESNHE5dyktvvMoa-vw",91
35,47.5,45.4,49.1,2029,2010,0,0,0,0,38,616,40,20,13,17,0,0,545,26429,17717,535,25,450,48400,24844,37.462452,-81.806627,IAEGER,WV,"https://maps.googleapis.com/maps/api/place/radarsearch/json?location=37.462452,-81.806627&radius=40233&keyword=Grocery&key=AIzaSyA_Clyz3478YAUnsESNHE5dyktvvMoa-vw",69
36,47.4,48.1,45.3,295,295,0,0,0,0,0,60,49,0,0,0,0,0,101,39018,24862,149,0,,,24845,37.517953,-81.817841,IKES FORK,WV,"https://maps.googleapis.com/maps/api/place/radarsearch/json?location=37.517953,-81.817841&radius=40233&keyword=Grocery&key=AIzaSyA_Clyz3478YAUnsESNHE5dyktvvMoa-vw",90
37,54.9,59.3,54.5,164,164,0,0,0,0,5,49,23,0,0,0,0,0,61,,16248,46,10,,51000,24846,37.529522,-81.91286,ISABAN,WV,"https://maps.googleapis.com/maps/api/place/radarsearch/json?location=37.529522,-81.91286&radius=40233&keyword=Grocery&key=AIzaSyA_Clyz3478YAUnsESNHE5dyktvvMoa-vw",98
38,28.8,35.2,28.7,302,302,0,0,0,0,0,147,0,0,0,0,0,0,154,13750,8301,86,44,,29200,24847,37.577109,-81.418416,ITMANN,WV,"https://maps.googleapis.com/maps/api/place/radarsearch/json?location=37.577109,-81.418416&radius=40233&keyword=Grocery&key=AIzaSyA_Clyz3478YAUnsESNHE5dyktvvMoa-vw",137
39,52.3,48.8,52.8,234,214,20,0,0,0,4,54,38,0,8,0,0,0,115,13403,13253,68,15,,22300,24848,37.303745,-81.460677,JENKINJONES,WV,"https://maps.googleapis.com/maps/api/place/radarsearch/json?location=37.303745,-81.460677&radius=40233&keyword=Grocery&key=AIzaSyA_Clyz3478YAUnsESNHE5dyktvvMoa-vw",133
40,31.9,32.5,29,356,356,0,0,0,0,0,183,8,0,0,0,0,0,0,44716,22742,112,0,,,24849,37.665763,-81.542748,JESSE,WV,"https://maps.googleapis.com/maps/api/place/radarsearch/json?location=37.665763,-81.542748&radius=40233&keyword=Grocery&key=AIzaSyA_Clyz3478YAUnsESNHE5dyktvvMoa-vw",142
41,44.8,37.8,50.4,915,913,0,0,0,0,0,204,39,33,0,0,0,0,392,25318,12194,178,2,,52700,24850,37.32097,-81.850505,JOLO,WV,"https://maps.googleapis.com/maps/api/place/radarsearch/json?location=37.32097,-81.850505&radius=40233&keyword=Grocery&key=AIzaSyA_Clyz3478YAUnsESNHE5dyktvvMoa-vw",93
42,42.3,44.7,36.8,427,427,0,0,0,0,0,92,29,29,0,0,0,0,61,28009,17012,113,15,,55000,24851,37.601371,-81.833685,JUSTICE,WV,"https://maps.googleapis.com/maps/api/place/radarsearch/json?location=37.601371,-81.833685&radius=40233&keyword=Grocery&key=AIzaSyA_Clyz3478YAUnsESNHE5dyktvvMoa-vw",87
43,55.6,56.9,54.8,488,403,83,0,0,5,0,88,21,10,28,3,18,4,127,37955,24980,234,25,518,54100,24853,37.435447,-81.511823,KIMBALL,WV,"https://maps.googleapis.com/maps/api/place/radarsearch/json?location=37.435447,-81.511823&radius=40233&keyword=Grocery&key=AIzaSyA_Clyz3478YAUnsESNHE5dyktvvMoa-vw",171
44,21.3,21.6,7.8,390,283,0,0,0,0,0,112,0,11,0,11,0,0,70,,17662,139,0,642,,24854,37.736493,-81.572685,KOPPERSTON,WV,"https://maps.googleapis.com/maps/api/place/radarsearch/json?location=37.736493,-81.572685&radius=40233&keyword=Grocery&key=AIzaSyA_Clyz3478YAUnsESNHE5dyktvvMoa-vw",145
45,56.1,58.2,52.8,790,790,0,0,0,0,0,176,25,12,33,76,0,0,89,40208,25590,216,0,514,80400,24857,37.67251,-81.660302,LYNCO,WV,"https://maps.googleapis.com/maps/api/place/radarsearch/json?location=37.67251,-81.660302&radius=40233&keyword=Grocery&key=AIzaSyA_Clyz3478YAUnsESNHE5dyktvvMoa-vw",87
46,60.5,62.1,59.7,379,379,0,0,0,27,0,132,0,0,15,15,0,0,112,21964,14568,51,0,,80400,24860,37.66017,-81.607608,MATHENY,WV,"https://maps.googleapis.com/maps/api/place/radarsearch/json?location=37.66017,-81.607608&radius=40233&keyword=Grocery&key=AIzaSyA_Clyz3478YAUnsESNHE5dyktvvMoa-vw",119
47,44.4,60.1,39.6,229,85,144,0,0,0,15,52,17,0,8,0,11,0,104,,13276,52,10,,,24861,37.350951,-81.36313,MAYBEURY,WV,"https://maps.googleapis.com/maps/api/place/radarsearch/json?location=37.350951,-81.36313&radius=40233&keyword=Grocery&key=AIzaSyA_Clyz3478YAUnsESNHE5dyktvvMoa-vw",120
48,56,53.6,58.8,400,400,0,0,0,0,12,93,6,0,0,0,0,0,88,25347,16907,85,10,380,51000,24862,37.469177,-81.964569,MOHAWK,WV,"https://maps.googleapis.com/maps/api/place/radarsearch/json?location=37.469177,-81.964569&radius=40233&keyword=Grocery&key=AIzaSyA_Clyz3478YAUnsESNHE5dyktvvMoa-vw",88
49,40.8,53.3,35.8,241,241,0,0,0,0,0,63,6,12,0,0,0,0,129,16473,11784,69,0,,44500,24866,37.248133,-81.580323,NEWHALL,WV,"https://maps.googleapis.com/maps/api/place/radarsearch/json?location=37.248133,-81.580323&radius=40233&keyword=Grocery&key=AIzaSyA_Clyz3478YAUnsESNHE5dyktvvMoa-vw",131
50,42.8,36.5,45.8,347,347,0,0,0,0,0,127,27,0,7,0,0,0,0,,22389,183,23,,43000,24867,37.595764,-81.444714,NEW RICHMOND,WV,"https://maps.googleapis.com/maps/api/place/radarsearch/json?location=37.595764,-81.444714&radius=40233&keyword=Grocery&key=AIzaSyA_Clyz3478YAUnsESNHE5dyktvvMoa-vw",173
51,52.2,52.5,51.8,1156,700,453,0,0,0,0,344,41,31,43,21,0,0,315,37386,17094,343,59,542,33900,24868,37.43845,-81.389063,NORTHFORK,WV,"https://maps.googleapis.com/maps/api/place/radarsearch/json?location=37.43845,-81.389063&radius=40233&keyword=Grocery&key=AIzaSyA_Clyz3478YAUnsESNHE5dyktvvMoa-vw",136
52,47.6,43.3,52.1,334,334,0,0,0,0,0,53,24,0,13,7,0,0,168,14261,13436,130,34,,55400,24869,37.562684,-81.838107,NORTH SPRING,WV,"https://maps.googleapis.com/maps/api/place/radarsearch/json?location=37.562684,-81.838107&radius=40233&keyword=Grocery&key=AIzaSyA_Clyz3478YAUnsESNHE5dyktvvMoa-vw",89
53,44.1,40.7,47,2590,2509,0,0,0,29,0,704,170,90,92,75,0,0,544,30969,20890,883,72,511,59800,24870,37.765445,-81.510219,OCEANA,WV,"https://maps.googleapis.com/maps/api/place/radarsearch/json?location=37.765445,-81.510219&radius=40233&keyword=Grocery&key=AIzaSyA_Clyz3478YAUnsESNHE5dyktvvMoa-vw",140
54,52.8,52.9,48.9,255,255,0,0,0,0,0,51,37,0,0,8,0,0,75,25179,13322,74,26,,30600,24871,37.359301,-81.468304,PAGETON,WV,"https://maps.googleapis.com/maps/api/place/radarsearch/json?location=37.359301,-81.468304&radius=40233&keyword=Grocery&key=AIzaSyA_Clyz3478YAUnsESNHE5dyktvvMoa-vw",126
55,41.9,40.6,45.2,647,647,0,0,0,0,0,113,17,13,9,0,0,0,342,15513,11394,94,10,608,28100,24872,37.449369,-81.920479,PANTHER,WV,"https://maps.googleapis.com/maps/api/place/radarsearch/json?location=37.449369,-81.920479&radius=40233&keyword=Grocery&key=AIzaSyA_Clyz3478YAUnsESNHE5dyktvvMoa-vw",95
56,49.5,49.6,48.6,343,343,0,0,0,0,0,79,30,9,45,0,0,13,29,30000,34981,140,11,,,24873,37.366148,-81.878193,PAYNESVILLE,WV,"https://maps.googleapis.com/maps/api/place/radarsearch/json?location=37.366148,-81.878193&radius=40233&keyword=Grocery&key=AIzaSyA_Clyz3478YAUnsESNHE5dyktvvMoa-vw",91
57,48,46.5,54.7,2846,2804,37,0,0,1,18,685,76,72,96,76,47,0,471,35517,19809,876,77,669,82800,24874,37.542528,-81.555341,PINEVILLE,WV,"https://maps.googleapis.com/maps/api/place/radarsearch/json?location=37.542528,-81.555341&radius=40233&keyword=Grocery&key=AIzaSyA_Clyz3478YAUnsESNHE5dyktvvMoa-vw",158
58,41,33.9,44,605,563,42,0,0,0,0,179,29,23,0,0,0,0,230,23550,10033,105,24,,,24878,37.439308,-81.625265,PREMIER,WV,"https://maps.googleapis.com/maps/api/place/radarsearch/json?location=37.439308,-81.625265&radius=40233&keyword=Grocery&key=AIzaSyA_Clyz3478YAUnsESNHE5dyktvvMoa-vw",112
59,39.6,21.8,42.9,695,680,0,0,0,0,0,61,20,0,7,0,0,0,400,19178,9642,197,9,,27000,24879,37.313896,-81.758686,RAYSAL,WV,"https://maps.googleapis.com/maps/api/place/radarsearch/json?location=37.313896,-81.758686&radius=40233&keyword=Grocery&key=AIzaSyA_Clyz3478YAUnsESNHE5dyktvvMoa-vw",81
60,37.9,9.8,69.2,346,346,0,0,0,0,0,64,0,45,0,0,0,0,223,24111,8282,0,0,,38000,24880,37.65141,-81.530693,ROCK VIEW,WV,"https://maps.googleapis.com/maps/api/place/radarsearch/json?location=37.65141,-81.530693&radius=40233&keyword=Grocery&key=AIzaSyA_Clyz3478YAUnsESNHE5dyktvvMoa-vw",165
61,41.8,41.8,45.1,374,374,0,0,0,0,0,111,13,11,0,10,0,0,126,31833,14903,94,0,,24000,24881,37.431342,-81.684596,RODERFIELD,WV,"https://maps.googleapis.com/maps/api/place/radarsearch/json?location=37.431342,-81.684596&radius=40233&keyword=Grocery&key=AIzaSyA_Clyz3478YAUnsESNHE5dyktvvMoa-vw",99
62,44.3,41.6,44.8,476,476,0,0,0,0,13,212,0,0,0,0,0,0,21,28654,12312,155,83,,40500,24882,37.625597,-81.766,SIMON,WV,"https://maps.googleapis.com/maps/api/place/radarsearch/json?location=37.625597,-81.766&radius=40233&keyword=Grocery&key=AIzaSyA_Clyz3478YAUnsESNHE5dyktvvMoa-vw",81
63,32.9,34.3,32.3,442,442,0,0,0,2,0,149,0,2,7,0,0,0,187,41042,11711,94,6,,24800,24884,37.23047,-81.604088,SQUIRE,WV,"https://maps.googleapis.com/maps/api/place/radarsearch/json?location=37.23047,-81.604088&radius=40233&keyword=Grocery&key=AIzaSyA_Clyz3478YAUnsESNHE5dyktvvMoa-vw",134
64,,,,15,15,0,0,0,0,0,0,7,0,0,0,0,0,0,,,0,0,,,24887,37.373345,-81.404173,SWITCHBACK,WV,"https://maps.googleapis.com/maps/api/place/radarsearch/json?location=37.373345,-81.404173&radius=40233&keyword=Grocery&key=AIzaSyA_Clyz3478YAUnsESNHE5dyktvvMoa-vw",134
65,33.8,36,29.9,125,113,3,0,0,2,0,10,6,17,14,0,0,0,38,,18780,36,0,,42500,24888,37.392804,-81.483252,THORPE,WV,"https://maps.googleapis.com/maps/api/place/radarsearch/json?location=37.392804,-81.483252&radius=40233&keyword=Grocery&key=AIzaSyA_Clyz3478YAUnsESNHE5dyktvvMoa-vw",150
66,43.2,43.9,35.9,1435,1422,13,0,0,0,16,508,99,15,8,22,0,0,683,21940,13634,349,39,515,32200,24892,37.32694,-81.687785,WAR,WV,"https://maps.googleapis.com/maps/api/place/radarsearch/json?location=37.32694,-81.687785&radius=40233&keyword=Grocery&key=AIzaSyA_Clyz3478YAUnsESNHE5dyktvvMoa-vw",103
67,55.6,63.3,55.1,328,328,0,0,0,0,11,81,0,10,6,3,0,0,105,24005,10449,45,0,,49300,24894,37.274965,-81.713671,WARRIORMINE,WV,"https://maps.googleapis.com/maps/api/place/radarsearch/json?location=37.274965,-81.713671&radius=40233&keyword=Grocery&key=AIzaSyA_Clyz3478YAUnsESNHE5dyktvvMoa-vw",94
68,30,43.4,,109,109,0,0,0,0,0,75,0,0,0,0,0,0,20,,21562,55,0,,,24898,37.593853,-81.610128,WYOMING,WV,"https://maps.googleapis.com/maps/api/place/radarsearch/json?location=37.593853,-81.610128&radius=40233&keyword=Grocery&key=AIzaSyA_Clyz3478YAUnsESNHE5dyktvvMoa-vw",131
69,44,44.7,42.5,8979,8410,279,0,119,87,21,1991,255,251,1413,591,301,135,1423,45608,27892,3902,197,780,161900,24901,37.855406,-80.451557,LEWISBURG,WV,"https://maps.googleapis.com/maps/api/place/radarsearch/json?location=37.855406,-80.451557&radius=40233&keyword=Grocery&key=AIzaSyA_Clyz3478YAUnsESNHE5dyktvvMoa-vw",75
70,42.4,45.1,41.5,5608,5101,370,0,20,149,34,1329,410,228,286,163,30,8,814,33797,17590,1877,167,615,86400,24910,37.750526,-80.648133,ALDERSON,WV,"https://maps.googleapis.com/maps/api/place/radarsearch/json?location=37.750526,-80.648133&radius=40233&keyword=Grocery&key=AIzaSyA_Clyz3478YAUnsESNHE5dyktvvMoa-vw",67
71,52.5,39.2,54.6,598,598,0,0,0,0,12,150,47,25,65,45,0,0,59,29761,24556,237,3,725,86100,24915,38.465457,-79.77717,ARBOVALE,WV,"https://maps.googleapis.com/maps/api/place/radarsearch/json?location=38.465457,-79.77717&radius=40233&keyword=Grocery&key=AIzaSyA_Clyz3478YAUnsESNHE5dyktvvMoa-vw",26
72,47.5,46.9,47.6,717,717,0,0,0,0,26,197,44,39,0,0,0,0,136,48485,17993,381,34,,87900,24916,37.828599,-80.581103,ASBURY,WV,"https://maps.googleapis.com/maps/api/place/radarsearch/json?location=37.828599,-80.581103&radius=40233&keyword=Grocery&key=AIzaSyA_Clyz3478YAUnsESNHE5dyktvvMoa-vw",78
73,39.3,43.1,38.2,1728,1728,0,0,0,0,12,312,162,4,105,79,0,0,111,42837,17373,720,40,570,115300,24918,37.522173,-80.74531,BALLARD,WV,"https://maps.googleapis.com/maps/api/place/radarsearch/json?location=37.522173,-80.74531&radius=40233&keyword=Grocery&key=AIzaSyA_Clyz3478YAUnsESNHE5dyktvvMoa-vw",157
74,45.4,47.1,45.1,332,328,2,0,0,0,0,157,31,12,15,0,0,2,70,,21505,164,22,425,64200,24920,38.580079,-79.704212,BARTOW,WV,"https://maps.googleapis.com/maps/api/place/radarsearch/json?location=38.580079,-79.704212&radius=40233&keyword=Grocery&key=AIzaSyA_Clyz3478YAUnsESNHE5dyktvvMoa-vw",59
75,43.2,43.4,32.8,348,348,0,0,0,0,0,130,0,24,9,0,0,0,0,47222,19639,164,13,571,150000,24924,38.201314,-80.16489,BUCKEYE,WV,"https://maps.googleapis.com/maps/api/place/radarsearch/json?location=38.201314,-80.16489&radius=40233&keyword=Grocery&key=AIzaSyA_Clyz3478YAUnsESNHE5dyktvvMoa-vw",49
76,53.1,53.7,47.6,637,557,0,0,0,0,0,211,51,52,51,11,9,0,53,51771,33229,354,17,678,110100,24925,37.714707,-80.376437,CALDWELL,WV,"https://maps.googleapis.com/maps/api/place/radarsearch/json?location=37.714707,-80.376437&radius=40233&keyword=Grocery&key=AIzaSyA_Clyz3478YAUnsESNHE5dyktvvMoa-vw",70
77,57.1,55.3,57.3,185,185,0,0,0,0,10,81,18,0,7,0,0,6,46,25909,19012,93,6,,86400,24927,38.375187,-79.957107,CASS,WV,"https://maps.googleapis.com/maps/api/place/radarsearch/json?location=38.375187,-79.957107&radius=40233&keyword=Grocery&key=AIzaSyA_Clyz3478YAUnsESNHE5dyktvvMoa-vw",37
78,47.3,48.3,47.1,1347,1347,0,0,0,0,25,377,50,111,56,60,41,0,418,40804,21175,550,57,,153800,24931,37.919011,-80.588601,CRAWLEY,WV,"https://maps.googleapis.com/maps/api/place/radarsearch/json?location=37.919011,-80.588601&radius=40233&keyword=Grocery&key=AIzaSyA_Clyz3478YAUnsESNHE5dyktvvMoa-vw",63
79,51.3,51.5,50.6,394,394,0,0,0,0,0,143,41,25,9,35,0,12,60,31932,41235,191,11,,121100,24934,38.333579,-79.891016,DUNMORE,WV,"https://maps.googleapis.com/maps/api/place/radarsearch/json?location=38.333579,-79.891016&radius=40233&keyword=Grocery&key=AIzaSyA_Clyz3478YAUnsESNHE5dyktvvMoa-vw",41
80,53.5,56.3,50.1,552,552,0,0,0,0,0,153,0,51,54,23,0,0,22,41500,26716,293,6,,106000,24935,37.56653,-80.808493,FOREST HILL,WV,"https://maps.googleapis.com/maps/api/place/radarsearch/json?location=37.56653,-80.808493&radius=40233&keyword=Grocery&key=AIzaSyA_Clyz3478YAUnsESNHE5dyktvvMoa-vw",182
81,39.5,37.8,51.2,1652,1437,0,0,0,240,0,552,37,16,114,82,0,0,80,49323,23573,801,50,,154500,24938,37.893492,-80.387188,FRANKFORD,WV,"https://maps.googleapis.com/maps/api/place/radarsearch/json?location=37.893492,-80.387188&radius=40233&keyword=Grocery&key=AIzaSyA_Clyz3478YAUnsESNHE5dyktvvMoa-vw",62
82,48.1,40.3,48.7,1365,1352,2,11,0,0,6,464,60,40,29,28,0,5,347,38942,18052,661,44,563,86700,24941,37.588011,-80.346704,GAP MILLS,WV,"https://maps.googleapis.com/maps/api/place/radarsearch/json?location=37.588011,-80.346704&radius=40233&keyword=Grocery&key=AIzaSyA_Clyz3478YAUnsESNHE5dyktvvMoa-vw",179
83,36.1,38.8,34,525,525,0,0,0,0,0,150,28,0,52,39,0,0,138,50714,19673,242,0,,175600,24944,38.389627,-79.783657,GREEN BANK,WV,"https://maps.googleapis.com/maps/api/place/radarsearch/json?location=38.389627,-79.783657&radius=40233&keyword=Grocery&key=AIzaSyA_Clyz3478YAUnsESNHE5dyktvvMoa-vw",34
84,54.9,49.6,63.9,403,387,0,0,0,0,0,105,15,0,9,26,0,12,20,44583,25930,167,25,,97600,24945,37.541978,-80.677193,GREENVILLE,WV,"https://maps.googleapis.com/maps/api/place/radarsearch/json?location=37.541978,-80.677193&radius=40233&keyword=Grocery&key=AIzaSyA_Clyz3478YAUnsESNHE5dyktvvMoa-vw",109
85,50.3,43.2,56.8,1642,1622,20,0,0,4,25,303,158,83,167,98,11,31,124,38750,17983,625,56,539,136100,24946,38.18442,-80.262312,HILLSBORO,WV,"https://maps.googleapis.com/maps/api/place/radarsearch/json?location=38.18442,-80.262312&radius=40233&keyword=Grocery&key=AIzaSyA_Clyz3478YAUnsESNHE5dyktvvMoa-vw",42
86,46.3,51.1,40.7,1520,1510,1,0,0,0,3,387,68,68,130,81,0,0,312,43958,20882,515,0,,124800,24951,37.484254,-80.643612,LINDSIDE,WV,"https://maps.googleapis.com/maps/api/place/radarsearch/json?location=37.484254,-80.643612&radius=40233&keyword=Grocery&key=AIzaSyA_Clyz3478YAUnsESNHE5dyktvvMoa-vw",136
87,49,50.1,48,3763,3575,51,0,0,48,14,1081,286,129,204,119,13,9,739,36815,21492,1718,94,635,111300,24954,38.224907,-80.056049,MARLINTON,WV,"https://maps.googleapis.com/maps/api/place/radarsearch/json?location=38.224907,-80.056049&radius=40233&keyword=Grocery&key=AIzaSyA_Clyz3478YAUnsESNHE5dyktvvMoa-vw",44
88,42.4,46.3,35.7,340,279,0,0,0,0,0,100,0,25,70,25,0,0,0,92179,45335,142,22,,200400,24957,37.885394,-80.425002,MAXWELTON,WV,"https://maps.googleapis.com/maps/api/place/radarsearch/json?location=37.885394,-80.425002&radius=40233&keyword=Grocery&key=AIzaSyA_Clyz3478YAUnsESNHE5dyktvvMoa-vw",66
89,38.7,40.3,38.3,111,105,6,0,0,0,0,0,5,0,0,0,0,0,42,,31196,39,5,,,24962,37.662404,-80.718357,PENCE SPRINGS,WV,"https://maps.googleapis.com/maps/api/place/radarsearch/json?location=37.662404,-80.718357&radius=40233&keyword=Grocery&key=AIzaSyA_Clyz3478YAUnsESNHE5dyktvvMoa-vw",138
90,44.2,42.4,46.2,4037,4015,0,0,0,125,31,1526,108,189,320,49,14,31,762,37007,20279,1684,173,568,110600,24963,37.436413,-80.758492,PETERSTOWN,WV,"https://maps.googleapis.com/maps/api/place/radarsearch/json?location=37.436413,-80.758492&radius=40233&keyword=Grocery&key=AIzaSyA_Clyz3478YAUnsESNHE5dyktvvMoa-vw",160
91,51.5,51.3,51.8,1469,1469,0,0,0,0,7,461,147,32,86,44,0,10,223,24244,16447,670,54,481,100800,24966,38.078505,-80.362598,RENICK,WV,"https://maps.googleapis.com/maps/api/place/radarsearch/json?location=38.078505,-80.362598&radius=40233&keyword=Grocery&key=AIzaSyA_Clyz3478YAUnsESNHE5dyktvvMoa-vw",76
92,42.2,39.2,45.4,4371,4080,74,0,0,30,6,1099,226,227,308,102,19,2,1053,33156,20775,2103,193,586,93300,24970,37.728072,-80.474482,RONCEVERTE,WV,"https://maps.googleapis.com/maps/api/place/radarsearch/json?location=37.728072,-80.474482&radius=40233&keyword=Grocery&key=AIzaSyA_Clyz3478YAUnsESNHE5dyktvvMoa-vw",78
93,47.5,47.1,47.9,242,242,0,0,0,0,0,61,43,0,0,0,0,9,66,40703,30400,115,16,,101200,24974,37.641768,-80.448356,SECONDCREEK,WV,"https://maps.googleapis.com/maps/api/place/radarsearch/json?location=37.641768,-80.448356&radius=40233&keyword=Grocery&key=AIzaSyA_Clyz3478YAUnsESNHE5dyktvvMoa-vw",109
94,41.7,34.9,46.1,1129,1065,0,8,0,0,7,281,0,43,44,76,24,0,256,29813,20997,609,33,,120300,24976,37.656964,-80.511709,SINKS GROVE,WV,"https://maps.googleapis.com/maps/api/place/radarsearch/json?location=37.656964,-80.511709&radius=40233&keyword=Grocery&key=AIzaSyA_Clyz3478YAUnsESNHE5dyktvvMoa-vw",78
95,52.3,49,52.6,594,572,0,0,0,0,0,112,25,0,69,17,0,0,219,46375,18398,173,0,,132500,24977,37.897155,-80.687105,SMOOT,WV,"https://maps.googleapis.com/maps/api/place/radarsearch/json?location=37.897155,-80.687105&radius=40233&keyword=Grocery&key=AIzaSyA_Clyz3478YAUnsESNHE5dyktvvMoa-vw",90
96,60.6,58.7,62.5,664,602,62,0,0,0,0,197,74,25,97,54,0,12,49,36447,26814,367,0,,88900,24981,37.629807,-80.735884,TALCOTT,WV,"https://maps.googleapis.com/maps/api/place/radarsearch/json?location=37.629807,-80.735884&radius=40233&keyword=Grocery&key=AIzaSyA_Clyz3478YAUnsESNHE5dyktvvMoa-vw",152
97,52,48.5,52.7,2251,2113,55,28,0,15,13,733,180,102,130,32,0,0,280,36731,21140,1023,40,409,101300,24983,37.57499,-80.518586,UNION,WV,"https://maps.googleapis.com/maps/api/place/radarsearch/json?location=37.57499,-80.518586&radius=40233&keyword=Grocery&key=AIzaSyA_Clyz3478YAUnsESNHE5dyktvvMoa-vw",98
98,60.1,60.5,55.6,244,236,0,0,0,0,0,68,9,0,15,0,0,0,17,35107,20793,128,47,,,24984,37.49353,-80.40502,WAITEVILLE,WV,"https://maps.googleapis.com/maps/api/place/radarsearch/json?location=37.49353,-80.40502&radius=40233&keyword=Grocery&key=AIzaSyA_Clyz3478YAUnsESNHE5dyktvvMoa-vw",156
99,44.3,43.1,47.2,5819,5332,357,0,19,32,17,1825,440,250,144,45,20,12,1177,39244,21532,2588,171,651,86500,24986,37.921086,-80.145726,WHITE SULPHUR SPRINGS,WV,"https://maps.googleapis.com/maps/api/place/radarsearch/json?location=37.921086,-80.145726&radius=40233&keyword=Grocery&key=AIzaSyA_Clyz3478YAUnsESNHE5dyktvvMoa-vw",73
100,46.7,46.4,49.4,658,658,0,0,0,0,15,173,14,0,113,34,0,0,41,52727,30611,264,14,,81700,24991,38.021577,-80.497448,WILLIAMSBURG,WV,"https://maps.googleapis.com/maps/api/place/radarsearch/json?location=38.021577,-80.497448&radius=40233&keyword=Grocery&key=AIzaSyA_Clyz3478YAUnsESNHE5dyktvvMoa-vw",83
101,,,,13,13,0,0,0,0,0,0,0,13,0,0,0,0,0,,,0,0,,,25002,38.135764,-81.24173,ALLOY,WV,"https://maps.googleapis.com/maps/api/place/radarsearch/json?location=38.135764,-81.24173&radius=40233&keyword=Grocery&key=AIzaSyA_Clyz3478YAUnsESNHE5dyktvvMoa-vw",151
102,40.7,35.3,47.1,2890,2807,39,0,44,29,0,602,118,119,217,48,13,0,652,32649,21010,1444,186,802,84200,25003,38.252558,-81.784866,ALUM CREEK,WV,"https://maps.googleapis.com/maps/api/place/radarsearch/json?location=38.252558,-81.784866&radius=40233&keyword=Grocery&key=AIzaSyA_Clyz3478YAUnsESNHE5dyktvvMoa-vw",172
103,52.9,52.7,55.2,136,136,0,0,0,0,0,51,3,30,0,0,0,0,44,,17304,93,0,,67300,25005,38.583444,-81.256426,AMMA,WV,"https://maps.googleapis.com/maps/api/place/radarsearch/json?location=38.583444,-81.256426&radius=40233&keyword=Grocery&key=AIzaSyA_Clyz3478YAUnsESNHE5dyktvvMoa-vw",121
104,38.2,37.3,38.6,733,733,0,0,0,0,0,162,61,39,25,23,0,0,83,38958,17775,259,11,,76300,25007,37.82484,-81.430458,ARNETT,WV,"https://maps.googleapis.com/maps/api/place/radarsearch/json?location=37.82484,-81.430458&radius=40233&keyword=Grocery&key=AIzaSyA_Clyz3478YAUnsESNHE5dyktvvMoa-vw",136
105,28.7,57.1,27.3,127,127,0,0,0,0,0,33,7,0,0,0,0,0,87,,4618,0,0,,,25008,37.947061,-81.34397,ARTIE,WV,"https://maps.googleapis.com/maps/api/place/radarsearch/json?location=37.947061,-81.34397&radius=40233&keyword=Grocery&key=AIzaSyA_Clyz3478YAUnsESNHE5dyktvvMoa-vw",134
106,43.3,43.9,40,1224,1224,0,0,0,0,10,386,55,36,35,9,0,0,232,56971,19166,518,65,663,67000,25009,38.202305,-81.684573,ASHFORD,WV,"https://maps.googleapis.com/maps/api/place/radarsearch/json?location=38.202305,-81.684573&radius=40233&keyword=Grocery&key=AIzaSyA_Clyz3478YAUnsESNHE5dyktvvMoa-vw",175
107,33.6,32.7,38.8,1159,1159,0,0,0,0,2,517,6,38,102,21,0,0,96,68016,22602,553,0,592,102700,25011,38.508579,-81.839417,BANCROFT,WV,"https://maps.googleapis.com/maps/api/place/radarsearch/json?location=38.508579,-81.839417&radius=40233&keyword=Grocery&key=AIzaSyA_Clyz3478YAUnsESNHE5dyktvvMoa-vw",176
108,45.1,44,45.2,4550,4190,46,4,3,18,84,1113,248,227,219,81,3,0,668,39938,20708,1843,133,681,74200,25015,38.246134,-81.497258,BELLE,WV,"https://maps.googleapis.com/maps/api/place/radarsearch/json?location=38.246134,-81.497258&radius=40233&keyword=Grocery&key=AIzaSyA_Clyz3478YAUnsESNHE5dyktvvMoa-vw",183
109,44.1,45.8,29.6,434,405,0,0,0,0,0,186,12,5,0,0,0,0,107,26250,16780,190,26,,58500,25019,38.371626,-81.068876,BICKMORE,WV,"https://maps.googleapis.com/maps/api/place/radarsearch/json?location=38.371626,-81.068876&radius=40233&keyword=Grocery&key=AIzaSyA_Clyz3478YAUnsESNHE5dyktvvMoa-vw",81
110,27.2,25.8,27.6,370,359,0,0,0,0,0,114,17,5,0,0,11,0,146,,19482,78,0,805,,25021,37.922107,-81.679778,BIM,WV,"https://maps.googleapis.com/maps/api/place/radarsearch/json?location=37.922107,-81.679778&radius=40233&keyword=Grocery&key=AIzaSyA_Clyz3478YAUnsESNHE5dyktvvMoa-vw",88
111,38.9,67.8,36.2,146,146,0,0,0,0,0,31,25,0,0,0,0,0,65,,16773,22,0,,,25022,37.860342,-81.81904,BLAIR,WV,"https://maps.googleapis.com/maps/api/place/radarsearch/json?location=37.860342,-81.81904&radius=40233&keyword=Grocery&key=AIzaSyA_Clyz3478YAUnsESNHE5dyktvvMoa-vw",94
112,45.3,32.9,49.9,715,715,0,0,0,16,4,325,19,0,16,14,0,16,145,45521,23205,275,17,,61800,25024,38.159082,-81.623721,BLOOMINGROSE,WV,"https://maps.googleapis.com/maps/api/place/radarsearch/json?location=38.159082,-81.623721&radius=40233&keyword=Grocery&key=AIzaSyA_Clyz3478YAUnsESNHE5dyktvvMoa-vw",165
113,41.9,46.8,41.2,131,131,0,0,0,0,0,34,0,0,13,13,0,0,0,80294,31227,73,0,,76500,25025,38.31469,-81.411393,BLOUNT,WV,"https://maps.googleapis.com/maps/api/place/radarsearch/json?location=38.31469,-81.411393&radius=40233&keyword=Grocery&key=AIzaSyA_Clyz3478YAUnsESNHE5dyktvvMoa-vw",170
114,49.6,49.7,49.4,343,343,0,0,0,6,0,89,8,26,46,0,0,0,36,36078,29287,129,14,,84400,25028,37.947147,-81.725572,BOB WHITE,WV,"https://maps.googleapis.com/maps/api/place/radarsearch/json?location=37.947147,-81.725572&radius=40233&keyword=Grocery&key=AIzaSyA_Clyz3478YAUnsESNHE5dyktvvMoa-vw",83
115,59.4,69.1,56.7,237,237,0,0,0,0,0,61,39,39,0,0,0,0,55,38529,20306,73,4,,70500,25030,38.453317,-81.225847,BOMONT,WV,"https://maps.googleapis.com/maps/api/place/radarsearch/json?location=38.453317,-81.225847&radius=40233&keyword=Grocery&key=AIzaSyA_Clyz3478YAUnsESNHE5dyktvvMoa-vw",114
116,35.1,38,34.1,923,840,69,0,5,0,0,284,5,15,8,16,15,0,9,43417,20536,497,40,667,55600,25031,38.148617,-81.275148,BOOMER,WV,"https://maps.googleapis.com/maps/api/place/radarsearch/json?location=38.148617,-81.275148&radius=40233&keyword=Grocery&key=AIzaSyA_Clyz3478YAUnsESNHE5dyktvvMoa-vw",164
117,40.6,40.3,41.2,1887,1875,0,6,0,2,22,629,75,138,71,25,0,0,234,41985,21348,796,13,576,87100,25033,38.612061,-81.924382,BUFFALO,WV,"https://maps.googleapis.com/maps/api/place/radarsearch/json?location=38.612061,-81.924382&radius=40233&keyword=Grocery&key=AIzaSyA_Clyz3478YAUnsESNHE5dyktvvMoa-vw",175
118,41.2,41.6,39.5,1230,1085,23,0,0,0,32,430,119,37,38,0,0,0,247,29353,15156,452,130,,46100,25035,38.165242,-81.521007,CABIN CREEK,WV,"https://maps.googleapis.com/maps/api/place/radarsearch/json?location=38.165242,-81.521007&radius=40233&keyword=Grocery&key=AIzaSyA_Clyz3478YAUnsESNHE5dyktvvMoa-vw",176
119,45.5,44.2,51.5,700,686,0,0,0,0,0,189,38,43,9,0,0,0,38,40708,21429,349,47,,41700,25036,38.214746,-81.258404,CANNELTON,WV,"https://maps.googleapis.com/maps/api/place/radarsearch/json?location=38.214746,-81.258404&radius=40233&keyword=Grocery&key=AIzaSyA_Clyz3478YAUnsESNHE5dyktvvMoa-vw",145
120,41.5,46.5,40.2,1021,789,7,0,0,0,0,196,43,22,39,10,0,0,170,45357,18835,470,43,642,44800,25039,38.234956,-81.363266,CEDAR GROVE,WV,"https://maps.googleapis.com/maps/api/place/radarsearch/json?location=38.234956,-81.363266&radius=40233&keyword=Grocery&key=AIzaSyA_Clyz3478YAUnsESNHE5dyktvvMoa-vw",165
121,41.7,39.5,43.1,521,507,0,0,0,0,0,156,13,54,8,0,0,0,0,44097,20731,171,18,684,105100,25040,38.126501,-81.235109,CHARLTON HEIGHTS,WV,"https://maps.googleapis.com/maps/api/place/radarsearch/json?location=38.126501,-81.235109&radius=40233&keyword=Grocery&key=AIzaSyA_Clyz3478YAUnsESNHE5dyktvvMoa-vw",154
122,39.9,40.5,38.8,1723,1698,0,19,0,0,4,585,53,0,94,44,0,0,443,25400,16194,547,105,518,87100,25043,38.425757,-81.003154,CLAY,WV,"https://maps.googleapis.com/maps/api/place/radarsearch/json?location=38.425757,-81.003154&radius=40233&keyword=Grocery&key=AIzaSyA_Clyz3478YAUnsESNHE5dyktvvMoa-vw",65
123,39.3,39,39.4,285,285,0,0,0,0,0,117,12,0,0,0,0,0,103,,12435,47,0,,,25044,37.911676,-81.368705,CLEAR CREEK,WV,"https://maps.googleapis.com/maps/api/place/radarsearch/json?location=37.911676,-81.368705&radius=40233&keyword=Grocery&key=AIzaSyA_Clyz3478YAUnsESNHE5dyktvvMoa-vw",133
124,42.2,41.8,43,5450,5084,4,0,0,32,22,1565,201,278,330,132,10,6,892,38588,20089,2079,128,588,80800,25045,38.447483,-81.329322,CLENDENIN,WV,"https://maps.googleapis.com/maps/api/place/radarsearch/json?location=38.447483,-81.329322&radius=40233&keyword=Grocery&key=AIzaSyA_Clyz3478YAUnsESNHE5dyktvvMoa-vw",130
125,24.5,24.1,35.4,378,378,0,0,0,0,0,121,25,0,0,0,0,0,111,23103,11137,175,53,566,20000,25047,37.920527,-81.767625,CLOTHIER,WV,"https://maps.googleapis.com/maps/api/place/radarsearch/json?location=37.920527,-81.767625&radius=40233&keyword=Grocery&key=AIzaSyA_Clyz3478YAUnsESNHE5dyktvvMoa-vw",81
126,50.9,50.6,,39,39,0,0,0,0,0,11,0,0,0,0,0,0,21,,9544,0,0,,,25048,37.945828,-81.437333,COLCORD,WV,"https://maps.googleapis.com/maps/api/place/radarsearch/json?location=37.945828,-81.437333&radius=40233&keyword=Grocery&key=AIzaSyA_Clyz3478YAUnsESNHE5dyktvvMoa-vw",139
127,27.6,19.8,28.5,605,587,0,0,5,0,6,174,0,23,17,5,0,0,44,45952,16524,186,32,494,58500,25049,38.115286,-81.558257,COMFORT,WV,"https://maps.googleapis.com/maps/api/place/radarsearch/json?location=38.115286,-81.558257&radius=40233&keyword=Grocery&key=AIzaSyA_Clyz3478YAUnsESNHE5dyktvvMoa-vw",182
128,46.1,43.2,46.6,254,254,0,0,0,0,0,32,9,16,0,0,0,0,141,,17380,103,10,,75000,25051,38.156947,-81.709791,COSTA,WV,"https://maps.googleapis.com/maps/api/place/radarsearch/json?location=38.156947,-81.709791&radius=40233&keyword=Grocery&key=AIzaSyA_Clyz3478YAUnsESNHE5dyktvvMoa-vw",161
129,38.7,36.8,39.9,4417,4323,14,0,17,40,31,1066,161,179,147,84,0,0,1221,36389,18207,1468,174,578,97500,25053,38.036736,-81.878922,DANVILLE,WV,"https://maps.googleapis.com/maps/api/place/radarsearch/json?location=38.036736,-81.878922&radius=40233&keyword=Grocery&key=AIzaSyA_Clyz3478YAUnsESNHE5dyktvvMoa-vw",131
130,44.5,18.8,46.8,342,342,0,0,0,0,0,87,0,22,0,0,0,0,114,38314,11375,115,0,,53300,25054,38.110531,-81.48849,DAWES,WV,"https://maps.googleapis.com/maps/api/place/radarsearch/json?location=38.110531,-81.48849&radius=40233&keyword=Grocery&key=AIzaSyA_Clyz3478YAUnsESNHE5dyktvvMoa-vw",177
131,59.8,60.2,59.3,315,315,0,0,0,0,0,133,13,41,0,0,0,0,60,45900,22009,97,10,,45500,25057,38.120375,-81.253436,DEEP WATER,WV,"https://maps.googleapis.com/maps/api/place/radarsearch/json?location=38.120375,-81.253436&radius=40233&keyword=Grocery&key=AIzaSyA_Clyz3478YAUnsESNHE5dyktvvMoa-vw",162
132,49.5,53.6,43.8,474,474,0,0,0,0,0,109,9,47,32,5,0,0,27,47625,20866,184,0,613,,25059,38.220237,-81.202847,DIXIE,WV,"https://maps.googleapis.com/maps/api/place/radarsearch/json?location=38.220237,-81.202847&radius=40233&keyword=Grocery&key=AIzaSyA_Clyz3478YAUnsESNHE5dyktvvMoa-vw",131
133,46.1,44.4,46.8,487,487,0,0,0,0,0,135,58,0,12,12,0,0,45,51023,18682,152,0,,48300,25060,37.94454,-81.427325,DOROTHY,WV,"https://maps.googleapis.com/maps/api/place/radarsearch/json?location=37.94454,-81.427325&radius=40233&keyword=Grocery&key=AIzaSyA_Clyz3478YAUnsESNHE5dyktvvMoa-vw",140
134,61.7,61.5,61.8,647,647,0,0,0,0,15,246,53,0,66,0,0,0,15,58489,22599,156,15,,54700,25061,38.174502,-81.439839,DRYBRANCH,WV,"https://maps.googleapis.com/maps/api/place/radarsearch/json?location=38.174502,-81.439839&radius=40233&keyword=Grocery&key=AIzaSyA_Clyz3478YAUnsESNHE5dyktvvMoa-vw",167
135,63.1,63.4,55.6,132,132,0,0,0,0,9,33,0,0,0,0,0,0,31,33869,17586,19,0,,61300,25062,37.880313,-81.432653,DRY CREEK,WV,"https://maps.googleapis.com/maps/api/place/radarsearch/json?location=37.880313,-81.432653&radius=40233&keyword=Grocery&key=AIzaSyA_Clyz3478YAUnsESNHE5dyktvvMoa-vw",146
136,51.7,57.2,47.5,1665,1655,0,10,0,3,17,401,127,71,81,22,23,0,328,30725,21110,723,61,609,77400,25063,38.570368,-80.929492,DUCK,WV,"https://maps.googleapis.com/maps/api/place/radarsearch/json?location=38.570368,-80.929492&radius=40233&keyword=Grocery&key=AIzaSyA_Clyz3478YAUnsESNHE5dyktvvMoa-vw",60
137,43,38.9,45.6,9502,7924,1179,21,104,156,41,2159,433,551,891,517,70,90,1374,40964,24414,4746,327,741,88400,25064,38.377043,-81.749626,DUNBAR,WV,"https://maps.googleapis.com/maps/api/place/radarsearch/json?location=38.377043,-81.749626&radius=40233&keyword=Grocery&key=AIzaSyA_Clyz3478YAUnsESNHE5dyktvvMoa-vw",169
138,43.8,43.3,46.6,947,856,0,0,3,44,16,305,67,19,79,20,0,0,39,50417,23357,384,84,805,85600,25067,38.201538,-81.442935,EAST BANK,WV,"https://maps.googleapis.com/maps/api/place/radarsearch/json?location=38.201538,-81.442935&radius=40233&keyword=Grocery&key=AIzaSyA_Clyz3478YAUnsESNHE5dyktvvMoa-vw",170
139,39.2,39.2,39.2,1873,1869,0,0,0,91,0,556,40,99,198,28,12,16,124,51207,25771,1034,89,583,117400,25070,38.545843,-81.931687,ELEANOR,WV,"https://maps.googleapis.com/maps/api/place/radarsearch/json?location=38.545843,-81.931687&radius=40233&keyword=Grocery&key=AIzaSyA_Clyz3478YAUnsESNHE5dyktvvMoa-vw",176
140,45.7,46.5,44.9,11927,10840,5,0,123,39,70,3331,747,565,1020,427,117,172,1318,47546,25262,5113,351,811,108300,25071,38.462464,-81.466833,ELKVIEW,WV,"https://maps.googleapis.com/maps/api/place/radarsearch/json?location=38.462464,-81.466833&radius=40233&keyword=Grocery&key=AIzaSyA_Clyz3478YAUnsESNHE5dyktvvMoa-vw",172
141,50.3,51.6,50.1,492,429,0,0,49,0,0,153,37,9,15,0,37,0,128,38438,18362,160,38,,,25075,38.060218,-81.405213,ESKDALE,WV,"https://maps.googleapis.com/maps/api/place/radarsearch/json?location=38.060218,-81.405213&radius=40233&keyword=Grocery&key=AIzaSyA_Clyz3478YAUnsESNHE5dyktvvMoa-vw",181
142,60.2,46.4,60.5,264,264,0,0,0,0,0,81,25,25,0,0,0,0,156,,12054,59,29,497,,25076,37.868612,-81.930987,ETHEL,WV,"https://maps.googleapis.com/maps/api/place/radarsearch/json?location=37.868612,-81.930987&radius=40233&keyword=Grocery&key=AIzaSyA_Clyz3478YAUnsESNHE5dyktvvMoa-vw",93
143,41.2,41.5,40.5,1283,1283,0,0,0,0,0,524,35,29,39,0,0,13,144,96473,37937,649,33,,113500,25081,38.075052,-81.754659,FOSTER,WV,"https://maps.googleapis.com/maps/api/place/radarsearch/json?location=38.075052,-81.754659&radius=40233&keyword=Grocery&key=AIzaSyA_Clyz3478YAUnsESNHE5dyktvvMoa-vw",154
144,33.9,33.7,35.1,1686,1686,0,0,0,9,0,301,58,36,177,101,0,0,482,45750,20748,749,97,609,,25082,38.604207,-82.031043,FRAZIERS BOTTOM,WV,"https://maps.googleapis.com/maps/api/place/radarsearch/json?location=38.604207,-82.031043&radius=40233&keyword=Grocery&key=AIzaSyA_Clyz3478YAUnsESNHE5dyktvvMoa-vw",183
145,53,62.1,52.2,635,516,0,0,0,13,0,299,49,32,57,0,0,0,85,41063,19248,299,0,,63000,25083,38.069889,-81.367758,GALLAGHER,WV,"https://maps.googleapis.com/maps/api/place/radarsearch/json?location=38.069889,-81.367758&radius=40233&keyword=Grocery&key=AIzaSyA_Clyz3478YAUnsESNHE5dyktvvMoa-vw",174
146,43.1,37.5,45.1,949,921,8,0,0,0,4,217,68,28,63,6,0,0,219,36719,16038,345,53,599,65000,25085,38.172682,-81.20548,GAULEY BRIDGE,WV,"https://maps.googleapis.com/maps/api/place/radarsearch/json?location=38.172682,-81.20548&radius=40233&keyword=Grocery&key=AIzaSyA_Clyz3478YAUnsESNHE5dyktvvMoa-vw",137
147,55.4,52.7,60,735,646,8,0,0,0,0,229,23,33,52,16,2,0,91,41023,19707,270,24,694,99600,25086,38.203982,-81.41735,GLASGOW,WV,"https://maps.googleapis.com/maps/api/place/radarsearch/json?location=38.203982,-81.41735&radius=40233&keyword=Grocery&key=AIzaSyA_Clyz3478YAUnsESNHE5dyktvvMoa-vw",172
148,54.3,59.3,50.3,124,124,0,0,0,0,0,31,41,0,0,0,0,0,66,12195,10160,28,0,,27800,25088,38.398602,-81.208823,GLEN,WV,"https://maps.googleapis.com/maps/api/place/radarsearch/json?location=38.398602,-81.208823&radius=40233&keyword=Grocery&key=AIzaSyA_Clyz3478YAUnsESNHE5dyktvvMoa-vw",109
149,66,58.3,67.1,123,123,0,0,0,0,0,19,0,0,0,0,0,0,0,,22151,61,0,,,25090,38.155129,-81.221003,GLEN FERRIS,WV,"https://maps.googleapis.com/maps/api/place/radarsearch/json?location=38.155129,-81.221003&radius=40233&keyword=Grocery&key=AIzaSyA_Clyz3478YAUnsESNHE5dyktvvMoa-vw",152
150,62.3,56.5,67.1,82,82,0,0,0,0,16,0,8,0,0,0,0,0,24,,22628,14,0,,25800,25093,37.98311,-81.669642,GORDON,WV,"https://maps.googleapis.com/maps/api/place/radarsearch/json?location=37.98311,-81.669642&radius=40233&keyword=Grocery&key=AIzaSyA_Clyz3478YAUnsESNHE5dyktvvMoa-vw",121
151,32.4,32.4,32.5,301,237,4,0,0,10,1,72,15,12,8,6,0,0,85,35250,15644,112,4,656,55400,25102,38.191015,-81.374818,HANDLEY,WV,"https://maps.googleapis.com/maps/api/place/radarsearch/json?location=38.191015,-81.374818&radius=40233&keyword=Grocery&key=AIzaSyA_Clyz3478YAUnsESNHE5dyktvvMoa-vw",170
152,20.7,20.2,43.3,205,197,0,0,0,0,0,36,0,0,0,0,0,0,22,,10993,48,0,,49300,25103,38.180757,-81.381089,HANSFORD,WV,"https://maps.googleapis.com/maps/api/place/radarsearch/json?location=38.180757,-81.381089&radius=40233&keyword=Grocery&key=AIzaSyA_Clyz3478YAUnsESNHE5dyktvvMoa-vw",170
153,40.7,48.1,32.9,479,479,0,0,0,0,0,170,2,26,47,2,14,0,156,19792,16365,158,33,332,80000,25106,38.790572,-82.100288,HENDERSON,WV,"https://maps.googleapis.com/maps/api/place/radarsearch/json?location=38.790572,-82.100288&radius=40233&keyword=Grocery&key=AIzaSyA_Clyz3478YAUnsESNHE5dyktvvMoa-vw",120
154,55.1,37.9,55.3,409,400,0,0,0,0,0,145,30,9,0,0,0,0,70,49609,25274,194,26,467,74700,25107,38.229749,-81.621635,HERNSHAW,WV,"https://maps.googleapis.com/maps/api/place/radarsearch/json?location=38.229749,-81.621635&radius=40233&keyword=Grocery&key=AIzaSyA_Clyz3478YAUnsESNHE5dyktvvMoa-vw",164
155,48.1,37.9,55.3,616,583,0,0,0,0,0,207,33,41,0,37,0,0,94,53971,26649,232,0,,87800,25108,37.973583,-81.881188,HEWETT,WV,"https://maps.googleapis.com/maps/api/place/radarsearch/json?location=37.973583,-81.881188&radius=40233&keyword=Grocery&key=AIzaSyA_Clyz3478YAUnsESNHE5dyktvvMoa-vw",120
156,52.1,54.3,40.7,502,502,0,0,0,0,0,225,0,0,67,0,0,0,79,,33543,352,0,,95700,25109,38.526763,-81.851908,HOMETOWN,WV,"https://maps.googleapis.com/maps/api/place/radarsearch/json?location=38.526763,-81.851908&radius=40233&keyword=Grocery&key=AIzaSyA_Clyz3478YAUnsESNHE5dyktvvMoa-vw",176
157,29.2,29.5,25.8,381,368,0,0,0,0,0,112,0,0,0,0,0,0,45,40263,24483,151,0,783,155200,25110,38.21843,-81.314979,HUGHESTON,WV,"https://maps.googleapis.com/maps/api/place/radarsearch/json?location=38.21843,-81.314979&radius=40233&keyword=Grocery&key=AIzaSyA_Clyz3478YAUnsESNHE5dyktvvMoa-vw",143
158,45.3,45,46.1,748,748,0,0,0,0,5,193,41,36,0,0,4,0,219,34524,15195,319,10,,44300,25111,38.352883,-81.128837,INDORE,WV,"https://maps.googleapis.com/maps/api/place/radarsearch/json?location=38.352883,-81.128837&radius=40233&keyword=Grocery&key=AIzaSyA_Clyz3478YAUnsESNHE5dyktvvMoa-vw",98
159,19.5,20,18.8,152,89,43,0,8,15,0,0,0,0,0,0,0,0,0,,3408,92,36,,,25112,38.380263,-81.767141,INSTITUTE,WV,"https://maps.googleapis.com/maps/api/place/radarsearch/json?location=38.380263,-81.767141&radius=40233&keyword=Grocery&key=AIzaSyA_Clyz3478YAUnsESNHE5dyktvvMoa-vw",164
160,50.3,50.1,50.5,858,784,0,18,0,0,10,342,30,33,10,27,12,0,101,49457,25306,327,36,,95600,25113,38.553281,-81.046284,IVYDALE,WV,"https://maps.googleapis.com/maps/api/place/radarsearch/json?location=38.553281,-81.046284&radius=40233&keyword=Grocery&key=AIzaSyA_Clyz3478YAUnsESNHE5dyktvvMoa-vw",76
161,48.6,48.7,42.9,630,621,0,0,0,0,0,268,32,8,22,0,0,0,211,35694,19876,249,0,,72200,25114,37.987318,-81.786336,JEFFREY,WV,"https://maps.googleapis.com/maps/api/place/radarsearch/json?location=37.987318,-81.786336&radius=40233&keyword=Grocery&key=AIzaSyA_Clyz3478YAUnsESNHE5dyktvvMoa-vw",115
162,26.9,19,32,205,205,0,0,0,0,0,68,0,27,0,0,0,0,114,,7368,120,96,,27200,25115,38.122192,-81.182251,KANAWHA FALLS,WV,"https://maps.googleapis.com/maps/api/place/radarsearch/json?location=38.122192,-81.182251&radius=40233&keyword=Grocery&key=AIzaSyA_Clyz3478YAUnsESNHE5dyktvvMoa-vw",152
163,45.9,55.6,43.2,832,749,83,0,0,0,0,247,45,81,12,0,0,0,143,36711,20402,299,29,663,53200,25118,38.11166,-81.305965,KIMBERLY,WV,"https://maps.googleapis.com/maps/api/place/radarsearch/json?location=38.11166,-81.305965&radius=40233&keyword=Grocery&key=AIzaSyA_Clyz3478YAUnsESNHE5dyktvvMoa-vw",162
164,21.4,19.1,28.1,558,558,0,0,0,22,0,134,18,15,0,0,8,0,83,42679,9620,169,0,555,66100,25119,38.041356,-81.276239,KINCAID,WV,"https://maps.googleapis.com/maps/api/place/radarsearch/json?location=38.041356,-81.276239&radius=40233&keyword=Grocery&key=AIzaSyA_Clyz3478YAUnsESNHE5dyktvvMoa-vw",173
165,44.7,47.3,43.5,678,678,0,0,0,0,0,381,26,0,0,0,0,0,43,,21690,221,0,,,25121,37.916211,-81.897277,LAKE,WV,"https://maps.googleapis.com/maps/api/place/radarsearch/json?location=37.916211,-81.897277&radius=40233&keyword=Grocery&key=AIzaSyA_Clyz3478YAUnsESNHE5dyktvvMoa-vw",99
166,47.3,47.1,49,3408,3332,0,0,0,0,0,1194,193,100,285,24,21,0,513,41797,21768,1308,211,651,78400,25123,38.730175,-81.900044,LEON,WV,"https://maps.googleapis.com/maps/api/place/radarsearch/json?location=38.730175,-81.900044&radius=40233&keyword=Grocery&key=AIzaSyA_Clyz3478YAUnsESNHE5dyktvvMoa-vw",143
167,45.1,44.8,46.4,1389,1389,0,0,0,16,0,510,0,101,33,101,0,0,168,54500,27113,779,0,,82800,25124,38.62249,-81.778935,LIBERTY,WV,"https://maps.googleapis.com/maps/api/place/radarsearch/json?location=38.62249,-81.778935&radius=40233&keyword=Grocery&key=AIzaSyA_Clyz3478YAUnsESNHE5dyktvvMoa-vw",161
168,52.5,47.9,61,646,646,0,0,0,13,6,191,44,8,0,29,0,0,69,32604,16762,179,12,,76200,25125,38.311679,-81.21523,LIZEMORES,WV,"https://maps.googleapis.com/maps/api/place/radarsearch/json?location=38.311679,-81.21523&radius=40233&keyword=Grocery&key=AIzaSyA_Clyz3478YAUnsESNHE5dyktvvMoa-vw",133
169,59.5,,,44,0,22,0,0,0,0,22,9,0,0,0,0,0,0,69135,43570,22,0,,,25126,38.202733,-81.372678,LONDON,WV,"https://maps.googleapis.com/maps/api/place/radarsearch/json?location=38.202733,-81.372678&radius=40233&keyword=Grocery&key=AIzaSyA_Clyz3478YAUnsESNHE5dyktvvMoa-vw",169
170,41.8,38.8,44.4,3491,3326,145,3,0,26,5,861,272,205,190,186,38,10,726,45027,25085,1332,86,629,101900,25130,38.032999,-81.752251,MADISON,WV,"https://maps.googleapis.com/maps/api/place/radarsearch/json?location=38.032999,-81.752251&radius=40233&keyword=Grocery&key=AIzaSyA_Clyz3478YAUnsESNHE5dyktvvMoa-vw",134
171,15.2,14.2,32,267,267,0,0,0,0,0,39,19,0,0,0,0,0,190,26250,8194,40,0,,17500,25132,38.293532,-81.344598,MAMMOTH,WV,"https://maps.googleapis.com/maps/api/place/radarsearch/json?location=38.293532,-81.344598&radius=40233&keyword=Grocery&key=AIzaSyA_Clyz3478YAUnsESNHE5dyktvvMoa-vw",156
172,32.1,32.3,30.9,1031,1016,0,0,0,0,0,199,9,39,33,49,0,0,464,16992,13200,322,45,243,121800,25133,38.477116,-81.145106,MAYSEL,WV,"https://maps.googleapis.com/maps/api/place/radarsearch/json?location=38.477116,-81.145106&radius=40233&keyword=Grocery&key=AIzaSyA_Clyz3478YAUnsESNHE5dyktvvMoa-vw",86
173,43.5,37.4,50.8,432,359,0,0,0,47,0,211,41,0,0,0,0,0,0,48802,21703,223,27,,64000,25134,38.16283,-81.490556,MIAMI,WV,"https://maps.googleapis.com/maps/api/place/radarsearch/json?location=38.16283,-81.490556&radius=40233&keyword=Grocery&key=AIzaSyA_Clyz3478YAUnsESNHE5dyktvvMoa-vw",174
174,30.3,24.8,35.2,1863,1314,321,6,5,57,15,281,60,94,166,76,14,21,374,27647,18645,782,63,452,77600,25136,38.150173,-81.327319,MONTGOMERY,WV,"https://maps.googleapis.com/maps/api/place/radarsearch/json?location=38.150173,-81.327319&radius=40233&keyword=Grocery&key=AIzaSyA_Clyz3478YAUnsESNHE5dyktvvMoa-vw",155
175,46.8,52.4,46,346,313,0,0,0,0,0,51,0,66,52,8,0,0,101,38378,26921,109,0,,112500,25139,38.137583,-81.291458,MOUNT CARBON,WV,"https://maps.googleapis.com/maps/api/place/radarsearch/json?location=38.137583,-81.291458&radius=40233&keyword=Grocery&key=AIzaSyA_Clyz3478YAUnsESNHE5dyktvvMoa-vw",165
176,36.1,22.9,44.7,1334,1334,0,0,0,0,14,371,7,22,27,0,0,0,256,32188,13850,423,46,581,56800,25140,37.839893000000004,-81.498515,NAOMA,WV,"https://maps.googleapis.com/maps/api/place/radarsearch/json?location=37.839893000000004,-81.498515&radius=40233&keyword=Grocery&key=AIzaSyA_Clyz3478YAUnsESNHE5dyktvvMoa-vw",139
177,52.7,53.2,52.4,205,205,0,0,0,0,0,43,26,14,11,0,0,0,113,23333,9305,46,0,,69500,25141,38.626886,-81.025349,NEBO,WV,"https://maps.googleapis.com/maps/api/place/radarsearch/json?location=38.626886,-81.025349&radius=40233&keyword=Grocery&key=AIzaSyA_Clyz3478YAUnsESNHE5dyktvvMoa-vw",61
178,56.2,53,62.4,282,282,0,0,0,0,8,77,46,0,52,0,0,0,46,39405,32211,121,6,,76600,25142,38.153554,-81.729882,NELLIS,WV,"https://maps.googleapis.com/maps/api/place/radarsearch/json?location=38.153554,-81.729882&radius=40233&keyword=Grocery&key=AIzaSyA_Clyz3478YAUnsESNHE5dyktvvMoa-vw",163
179,42.6,41.1,43.7,7937,7629,156,0,10,54,15,1984,232,484,631,461,48,2,879,44382,25614,3844,146,704,94800,25143,38.417874,-81.819479,NITRO,WV,"https://maps.googleapis.com/maps/api/place/radarsearch/json?location=38.417874,-81.819479&radius=40233&keyword=Grocery&key=AIzaSyA_Clyz3478YAUnsESNHE5dyktvvMoa-vw",171
180,47.1,44.7,54.6,291,291,0,0,0,0,0,145,31,8,6,0,0,0,0,41071,16053,73,26,,45000,25148,38.045589,-81.56173,ORGAS,WV,"https://maps.googleapis.com/maps/api/place/radarsearch/json?location=38.045589,-81.56173&radius=40233&keyword=Grocery&key=AIzaSyA_Clyz3478YAUnsESNHE5dyktvvMoa-vw",189
181,43.2,38.5,45.9,196,157,0,0,0,0,0,83,0,7,0,0,0,0,56,34271,20265,45,0,,66400,25149,37.949155,-81.771997,OTTAWA,WV,"https://maps.googleapis.com/maps/api/place/radarsearch/json?location=37.949155,-81.771997&radius=40233&keyword=Grocery&key=AIzaSyA_Clyz3478YAUnsESNHE5dyktvvMoa-vw",88
182,55.1,57.3,53.7,323,264,14,0,0,0,0,143,0,15,9,0,0,0,79,29423,19388,79,8,,40900,25152,38.058191,-81.250675,PAGE,WV,"https://maps.googleapis.com/maps/api/place/radarsearch/json?location=38.058191,-81.250675&radius=40233&keyword=Grocery&key=AIzaSyA_Clyz3478YAUnsESNHE5dyktvvMoa-vw",164
183,40.4,40.8,39.8,729,729,0,0,0,12,0,166,31,0,10,44,0,0,191,25648,19277,188,10,,76300,25154,38.120576,-81.713325,PEYTONA,WV,"https://maps.googleapis.com/maps/api/place/radarsearch/json?location=38.120576,-81.713325&radius=40233&keyword=Grocery&key=AIzaSyA_Clyz3478YAUnsESNHE5dyktvvMoa-vw",157
184,66.2,66.8,59.6,106,0,33,0,0,0,0,13,16,20,0,0,0,0,24,25577,11810,20,0,,,25156,38.183259,-81.336855,PINCH,WV,"https://maps.googleapis.com/maps/api/place/radarsearch/json?location=38.183259,-81.336855&radius=40233&keyword=Grocery&key=AIzaSyA_Clyz3478YAUnsESNHE5dyktvvMoa-vw",148
185,40.7,36.8,42.9,5711,5697,5,0,0,9,6,1382,166,211,570,186,10,0,1155,49505,21871,2562,141,791,118200,25159,38.523611,-81.788899,POCA,WV,"https://maps.googleapis.com/maps/api/place/radarsearch/json?location=38.523611,-81.788899&radius=40233&keyword=Grocery&key=AIzaSyA_Clyz3478YAUnsESNHE5dyktvvMoa-vw",174
186,45.5,19.9,52.3,173,75,0,0,0,0,0,65,22,10,0,0,0,0,0,,11564,56,12,,32400,25160,38.282203,-81.272662,POND GAP,WV,"https://maps.googleapis.com/maps/api/place/radarsearch/json?location=38.282203,-81.272662&radius=40233&keyword=Grocery&key=AIzaSyA_Clyz3478YAUnsESNHE5dyktvvMoa-vw",141
187,35.9,42.8,35.1,330,330,0,0,0,0,0,108,0,38,0,0,0,0,12,57917,19647,184,20,,106800,25161,38.052784,-81.318726,POWELLTON,WV,"https://maps.googleapis.com/maps/api/place/radarsearch/json?location=38.052784,-81.318726&radius=40233&keyword=Grocery&key=AIzaSyA_Clyz3478YAUnsESNHE5dyktvvMoa-vw",164
188,42.8,36.6,48.5,520,484,4,2,0,0,0,101,21,33,43,50,0,0,75,48889,24409,196,5,600,87800,25162,38.207558,-81.387342,PRATT,WV,"https://maps.googleapis.com/maps/api/place/radarsearch/json?location=38.207558,-81.387342&radius=40233&keyword=Grocery&key=AIzaSyA_Clyz3478YAUnsESNHE5dyktvvMoa-vw",170
189,42.7,42,44.3,1284,1284,0,0,0,0,31,423,73,66,40,17,0,0,387,31287,15576,452,79,476,100900,25164,38.509184,-81.204946,PROCIOUS,WV,"https://maps.googleapis.com/maps/api/place/radarsearch/json?location=38.509184,-81.204946&radius=40233&keyword=Grocery&key=AIzaSyA_Clyz3478YAUnsESNHE5dyktvvMoa-vw",112
190,46.5,45.6,46.8,477,477,0,0,0,0,0,162,20,30,11,35,0,0,74,40139,22057,224,9,531,86600,25165,38.146044,-81.649422,RACINE,WV,"https://maps.googleapis.com/maps/api/place/radarsearch/json?location=38.146044,-81.649422&radius=40233&keyword=Grocery&key=AIzaSyA_Clyz3478YAUnsESNHE5dyktvvMoa-vw",166
191,45.6,43.1,47.7,2182,2147,0,0,35,0,17,812,13,238,124,38,0,0,196,39657,20698,833,15,,106800,25168,38.560349,-81.87985,RED HOUSE,WV,"https://maps.googleapis.com/maps/api/place/radarsearch/json?location=38.560349,-81.87985&radius=40233&keyword=Grocery&key=AIzaSyA_Clyz3478YAUnsESNHE5dyktvvMoa-vw",172
192,32.5,42.7,31.9,724,724,0,0,0,0,7,138,33,68,34,9,0,0,371,40313,13235,196,19,615,85000,25169,38.175825,-81.78984,RIDGEVIEW,WV,"https://maps.googleapis.com/maps/api/place/radarsearch/json?location=38.175825,-81.78984&radius=40233&keyword=Grocery&key=AIzaSyA_Clyz3478YAUnsESNHE5dyktvvMoa-vw",173
193,52.2,49.5,52.3,327,298,29,0,0,0,0,43,44,14,0,0,0,0,105,29107,13109,100,8,,43900,25173,38.091155,-81.229776,ROBSON,WV,"https://maps.googleapis.com/maps/api/place/radarsearch/json?location=38.091155,-81.229776&radius=40233&keyword=Grocery&key=AIzaSyA_Clyz3478YAUnsESNHE5dyktvvMoa-vw",157
194,28.4,26.1,31.2,502,495,0,0,7,0,0,79,48,11,7,8,0,7,34,51181,20610,128,0,,39600,25174,37.86566,-81.410962,ROCK CREEK,WV,"https://maps.googleapis.com/maps/api/place/radarsearch/json?location=37.86566,-81.410962&radius=40233&keyword=Grocery&key=AIzaSyA_Clyz3478YAUnsESNHE5dyktvvMoa-vw",126
195,43.4,40.5,45,24605,23395,465,114,42,132,96,6087,1181,1264,2066,937,131,45,4288,42926,24525,11843,940,693,91700,25177,38.367284,-81.848331,SAINT ALBANS,WV,"https://maps.googleapis.com/maps/api/place/radarsearch/json?location=38.367284,-81.848331&radius=40233&keyword=Grocery&key=AIzaSyA_Clyz3478YAUnsESNHE5dyktvvMoa-vw",175
196,61.8,,61.2,65,65,0,0,0,0,0,36,7,0,0,0,0,0,0,,21762,27,0,,,25180,37.790262,-81.436271,SAXON,WV,"https://maps.googleapis.com/maps/api/place/radarsearch/json?location=37.790262,-81.436271&radius=40233&keyword=Grocery&key=AIzaSyA_Clyz3478YAUnsESNHE5dyktvvMoa-vw",137
197,41.6,39.6,42,1450,1447,0,3,0,12,17,446,27,41,91,6,0,0,428,36530,18979,373,34,565,67200,25181,38.04929,-81.6412,SETH,WV,"https://maps.googleapis.com/maps/api/place/radarsearch/json?location=38.04929,-81.6412&radius=40233&keyword=Grocery&key=AIzaSyA_Clyz3478YAUnsESNHE5dyktvvMoa-vw",155
198,,,,0,0,0,0,0,0,0,0,0,0,0,0,0,0,0,,,0,0,,,25183,37.914012,-81.790074,SHARPLES,WV,"https://maps.googleapis.com/maps/api/place/radarsearch/json?location=37.914012,-81.790074&radius=40233&keyword=Grocery&key=AIzaSyA_Clyz3478YAUnsESNHE5dyktvvMoa-vw",85
199,40.5,40.5,,1022,789,215,9,0,22,0,184,335,45,17,0,5,0,0,,6831,0,0,,,25185,38.235187,-81.238016,MOUNT OLIVE,WV,"https://maps.googleapis.com/maps/api/place/radarsearch/json?location=38.235187,-81.238016&radius=40233&keyword=Grocery&key=AIzaSyA_Clyz3478YAUnsESNHE5dyktvvMoa-vw",138
200,36.2,28.9,43.3,1041,855,135,20,4,47,0,339,13,65,33,19,0,0,345,27639,15775,433,7,361,68600,25186,38.182372,-81.271197,SMITHERS,WV,"https://maps.googleapis.com/maps/api/place/radarsearch/json?location=38.182372,-81.271197&radius=40233&keyword=Grocery&key=AIzaSyA_Clyz3478YAUnsESNHE5dyktvvMoa-vw",148
201,52.5,49.5,54,929,929,0,0,0,0,0,123,167,0,15,18,0,0,40,47063,24411,489,0,,,25187,38.724539,-82.029452,SOUTHSIDE,WV,"https://maps.googleapis.com/maps/api/place/radarsearch/json?location=38.724539,-82.029452&radius=40233&keyword=Grocery&key=AIzaSyA_Clyz3478YAUnsESNHE5dyktvvMoa-vw",169
202,39.7,39.1,44.6,329,328,0,0,0,0,0,86,18,5,7,6,0,0,44,42750,24492,126,7,536,61700,25193,38.03546,-81.507099,SYLVESTER,WV,"https://maps.googleapis.com/maps/api/place/radarsearch/json?location=38.03546,-81.507099&radius=40233&keyword=Grocery&key=AIzaSyA_Clyz3478YAUnsESNHE5dyktvvMoa-vw",182
203,,,,24,24,0,0,0,0,0,0,0,0,0,0,0,0,24,,,0,0,,,25201,38.335613,-81.490465,TAD,WV,"https://maps.googleapis.com/maps/api/place/radarsearch/json?location=38.335613,-81.490465&radius=40233&keyword=Grocery&key=AIzaSyA_Clyz3478YAUnsESNHE5dyktvvMoa-vw",179
204,35.6,32.4,35.9,1159,1081,0,0,0,0,0,250,66,52,126,31,0,6,219,55063,26358,525,71,623,104300,25202,38.316375,-81.859088,TORNADO,WV,"https://maps.googleapis.com/maps/api/place/radarsearch/json?location=38.316375,-81.859088&radius=40233&keyword=Grocery&key=AIzaSyA_Clyz3478YAUnsESNHE5dyktvvMoa-vw",177
205,44.8,44.6,,88,88,0,0,0,0,0,23,25,8,7,0,0,0,73,,18227,7,0,,,25203,38.015993,-81.882308,TURTLE CREEK,WV,"https://maps.googleapis.com/maps/api/place/radarsearch/json?location=38.015993,-81.882308&radius=40233&keyword=Grocery&key=AIzaSyA_Clyz3478YAUnsESNHE5dyktvvMoa-vw",138
206,25.3,25.4,23.9,216,216,0,0,0,0,7,56,21,7,7,0,0,0,30,30417,15888,62,0,440,,25204,37.925321,-81.61456,TWILIGHT,WV,"https://maps.googleapis.com/maps/api/place/radarsearch/json?location=37.925321,-81.61456&radius=40233&keyword=Grocery&key=AIzaSyA_Clyz3478YAUnsESNHE5dyktvvMoa-vw",117
207,60.8,57.8,66.5,455,455,0,0,0,0,0,219,54,3,37,23,0,0,17,32301,20981,71,14,,69500,25205,38.019487,-81.793006,UNEEDA,WV,"https://maps.googleapis.com/maps/api/place/radarsearch/json?location=38.019487,-81.793006&radius=40233&keyword=Grocery&key=AIzaSyA_Clyz3478YAUnsESNHE5dyktvvMoa-vw",128
208,57,57.3,56.3,348,348,0,0,0,0,9,84,5,9,0,13,0,0,49,,21979,90,0,,24700,25206,37.997807,-81.695777,VAN,WV,"https://maps.googleapis.com/maps/api/place/radarsearch/json?location=37.997807,-81.695777&radius=40233&keyword=Grocery&key=AIzaSyA_Clyz3478YAUnsESNHE5dyktvvMoa-vw",126
209,39.3,40.3,39.3,1058,1049,0,0,0,5,20,249,55,33,17,0,0,0,158,45625,18696,360,42,516,53700,25208,37.836513,-81.639765,WHARTON,WV,"https://maps.googleapis.com/maps/api/place/radarsearch/json?location=37.836513,-81.639765&radius=40233&keyword=Grocery&key=AIzaSyA_Clyz3478YAUnsESNHE5dyktvvMoa-vw",91
210,49,46.9,51,1207,1207,0,0,0,0,13,376,114,50,17,21,0,0,298,25250,21059,393,20,512,48800,25209,37.952988,-81.519912,WHITESVILLE,WV,"https://maps.googleapis.com/maps/api/place/radarsearch/json?location=37.952988,-81.519912&radius=40233&keyword=Grocery&key=AIzaSyA_Clyz3478YAUnsESNHE5dyktvvMoa-vw",149
211,22.7,22.9,22.2,191,191,0,0,0,0,0,8,21,0,0,0,0,0,86,,11650,115,78,,,25211,38.46869,-80.888411,WIDEN,WV,"https://maps.googleapis.com/maps/api/place/radarsearch/json?location=38.46869,-80.888411&radius=40233&keyword=Grocery&key=AIzaSyA_Clyz3478YAUnsESNHE5dyktvvMoa-vw",89
212,43.4,43.3,43.7,5999,5765,3,0,0,26,3,1343,152,393,765,328,36,9,572,58190,34283,2964,42,532,155600,25213,38.512666,-81.913305,WINFIELD,WV,"https://maps.googleapis.com/maps/api/place/radarsearch/json?location=38.512666,-81.913305&radius=40233&keyword=Grocery&key=AIzaSyA_Clyz3478YAUnsESNHE5dyktvvMoa-vw",173
213,23.1,21.8,27.6,654,512,0,0,0,0,0,159,37,10,0,12,0,0,253,71563,19187,208,26,,57300,25214,38.187702,-81.538244,WINIFREDE,WV,"https://maps.googleapis.com/maps/api/place/radarsearch/json?location=38.187702,-81.538244&radius=40233&keyword=Grocery&key=AIzaSyA_Clyz3478YAUnsESNHE5dyktvvMoa-vw",176
214,43.2,43.8,43.1,1567,1554,0,5,0,0,21,570,84,9,68,0,9,0,155,53826,22969,764,122,574,79100,25234,38.811456,-81.138257,ARNOLDSBURG,WV,"https://maps.googleapis.com/maps/api/place/radarsearch/json?location=38.811456,-81.138257&radius=40233&keyword=Grocery&key=AIzaSyA_Clyz3478YAUnsESNHE5dyktvvMoa-vw",61
215,46.2,44.6,46.8,750,737,5,0,0,0,0,160,51,31,46,42,0,0,136,34258,19332,379,55,,58800,25235,38.669527,-81.0895,CHLOE,WV,"https://maps.googleapis.com/maps/api/place/radarsearch/json?location=38.669527,-81.0895&radius=40233&keyword=Grocery&key=AIzaSyA_Clyz3478YAUnsESNHE5dyktvvMoa-vw",60
216,45.2,45.4,44.6,1883,1883,0,0,0,0,4,532,40,142,186,22,9,0,341,40096,21107,630,77,501,89200,25239,38.83866,-81.846681,COTTAGEVILLE,WV,"https://maps.googleapis.com/maps/api/place/radarsearch/json?location=38.83866,-81.846681&radius=40233&keyword=Grocery&key=AIzaSyA_Clyz3478YAUnsESNHE5dyktvvMoa-vw",96
217,38.7,35.8,43.8,1612,1583,11,0,0,0,0,328,65,102,179,64,0,29,46,67617,26735,650,13,1077,144400,25241,38.787975,-81.810031,EVANS,WV,"https://maps.googleapis.com/maps/api/place/radarsearch/json?location=38.787975,-81.810031&radius=40233&keyword=Grocery&key=AIzaSyA_Clyz3478YAUnsESNHE5dyktvvMoa-vw",119
218,52.6,53.8,51.5,636,632,0,0,0,0,20,215,65,27,11,0,0,0,118,30313,21786,216,26,575,96400,25243,38.686717,-81.479468,GANDEEVILLE,WV,"https://maps.googleapis.com/maps/api/place/radarsearch/json?location=38.686717,-81.479468&radius=40233&keyword=Grocery&key=AIzaSyA_Clyz3478YAUnsESNHE5dyktvvMoa-vw",129
219,50,48.4,58,555,541,0,0,0,0,0,148,34,28,22,0,0,0,80,38750,14931,141,0,,35000,25244,38.767566,-81.550872,GAY,WV,"https://maps.googleapis.com/maps/api/place/radarsearch/json?location=38.767566,-81.550872&radius=40233&keyword=Grocery&key=AIzaSyA_Clyz3478YAUnsESNHE5dyktvvMoa-vw",115
220,49.1,49.4,47.6,622,622,0,0,0,0,0,178,38,53,0,34,0,0,169,54318,32610,332,13,,121800,25245,38.69742,-81.755385,GIVEN,WV,"https://maps.googleapis.com/maps/api/place/radarsearch/json?location=38.69742,-81.755385&radius=40233&keyword=Grocery&key=AIzaSyA_Clyz3478YAUnsESNHE5dyktvvMoa-vw",164
221,42,39.4,45.3,527,497,5,0,0,0,0,141,48,16,12,2,0,0,122,32625,16325,218,22,628,66800,25247,39.005944,-82.006294,HARTFORD,WV,"https://maps.googleapis.com/maps/api/place/radarsearch/json?location=39.005944,-82.006294&radius=40233&keyword=Grocery&key=AIzaSyA_Clyz3478YAUnsESNHE5dyktvvMoa-vw",133
222,44.4,39.7,48.4,2984,2984,0,0,0,0,0,928,66,97,276,18,30,74,358,38981,30709,1014,30,,166100,25248,38.644268,-81.613862,KENNA,WV,"https://maps.googleapis.com/maps/api/place/radarsearch/json?location=38.644268,-81.613862&radius=40233&keyword=Grocery&key=AIzaSyA_Clyz3478YAUnsESNHE5dyktvvMoa-vw",155
223,35,35.3,33,565,565,0,0,0,0,0,148,18,9,3,0,0,0,163,32917,15726,107,0,,72300,25251,38.620525,-81.236323,LEFT HAND,WV,"https://maps.googleapis.com/maps/api/place/radarsearch/json?location=38.620525,-81.236323&radius=40233&keyword=Grocery&key=AIzaSyA_Clyz3478YAUnsESNHE5dyktvvMoa-vw",91
224,45,44.7,45.2,1205,1132,73,0,0,0,8,315,63,116,132,22,0,0,82,50028,25595,512,16,,113800,25252,38.950961,-81.511175,LE ROY,WV,"https://maps.googleapis.com/maps/api/place/radarsearch/json?location=38.950961,-81.511175&radius=40233&keyword=Grocery&key=AIzaSyA_Clyz3478YAUnsESNHE5dyktvvMoa-vw",127
225,43.1,43.3,42.5,2163,2147,0,0,16,0,48,807,68,127,129,22,13,0,435,34972,19433,967,60,383,83900,25253,38.921064,-81.96149,LETART,WV,"https://maps.googleapis.com/maps/api/place/radarsearch/json?location=38.921064,-81.96149&radius=40233&keyword=Grocery&key=AIzaSyA_Clyz3478YAUnsESNHE5dyktvvMoa-vw",119
226,43.8,45.5,38.9,536,502,0,0,4,0,0,227,17,25,26,10,0,0,89,42083,20012,152,22,,79500,25259,38.673526,-81.251761,LOONEYVILLE,WV,"https://maps.googleapis.com/maps/api/place/radarsearch/json?location=38.673526,-81.251761&radius=40233&keyword=Grocery&key=AIzaSyA_Clyz3478YAUnsESNHE5dyktvvMoa-vw",93
227,47.1,42.2,52,1644,1566,23,0,0,0,0,522,89,109,69,22,0,0,412,36433,19354,672,51,517,81200,25260,39.003788,-82.031958,MASON,WV,"https://maps.googleapis.com/maps/api/place/radarsearch/json?location=39.003788,-82.031958&radius=40233&keyword=Grocery&key=AIzaSyA_Clyz3478YAUnsESNHE5dyktvvMoa-vw",106
228,55.6,55.3,58.5,309,309,0,0,0,0,0,145,42,0,0,9,0,0,106,28382,13043,85,8,,82900,25261,38.821662,-81.080487,MILLSTONE,WV,"https://maps.googleapis.com/maps/api/place/radarsearch/json?location=38.821662,-81.080487&radius=40233&keyword=Grocery&key=AIzaSyA_Clyz3478YAUnsESNHE5dyktvvMoa-vw",65
229,42.6,42.8,42.5,1107,1107,0,0,0,0,13,178,8,118,110,0,0,0,12,71094,29392,676,41,,118200,25262,38.907802,-81.826041,MILLWOOD,WV,"https://maps.googleapis.com/maps/api/place/radarsearch/json?location=38.907802,-81.826041&radius=40233&keyword=Grocery&key=AIzaSyA_Clyz3478YAUnsESNHE5dyktvvMoa-vw",133
230,39.1,29.6,42.2,335,335,0,0,0,0,0,64,10,17,0,0,0,0,0,28500,12630,100,15,,68000,25264,38.859864,-81.893884,MOUNT ALTO,WV,"https://maps.googleapis.com/maps/api/place/radarsearch/json?location=38.859864,-81.893884&radius=40233&keyword=Grocery&key=AIzaSyA_Clyz3478YAUnsESNHE5dyktvvMoa-vw",97
231,40.3,41.3,37.4,1477,1466,0,0,0,0,0,436,27,147,107,23,0,2,326,36712,20799,628,80,534,81400,25265,38.986622,-81.957737,NEW HAVEN,WV,"https://maps.googleapis.com/maps/api/place/radarsearch/json?location=38.986622,-81.957737&radius=40233&keyword=Grocery&key=AIzaSyA_Clyz3478YAUnsESNHE5dyktvvMoa-vw",137
232,35.3,35.8,35,1017,972,0,0,0,0,7,227,37,7,81,8,0,0,378,27500,15956,304,17,,87300,25266,38.605981,-81.162323,NEWTON,WV,"https://maps.googleapis.com/maps/api/place/radarsearch/json?location=38.605981,-81.162323&radius=40233&keyword=Grocery&key=AIzaSyA_Clyz3478YAUnsESNHE5dyktvvMoa-vw",75
233,44.5,44.2,44.8,737,715,0,0,0,0,10,194,59,0,31,44,0,7,144,38194,20507,329,34,,71400,25267,38.833599,-80.940901,NORMANTOWN,WV,"https://maps.googleapis.com/maps/api/place/radarsearch/json?location=38.833599,-80.940901&radius=40233&keyword=Grocery&key=AIzaSyA_Clyz3478YAUnsESNHE5dyktvvMoa-vw",57
234,53.7,54.9,47.6,765,755,0,0,0,0,8,239,56,30,94,0,0,0,137,31397,17858,329,144,,59500,25268,38.725084,-81.076202,ORMA,WV,"https://maps.googleapis.com/maps/api/place/radarsearch/json?location=38.725084,-81.076202&radius=40233&keyword=Grocery&key=AIzaSyA_Clyz3478YAUnsESNHE5dyktvvMoa-vw",74
235,40.6,44.9,36,1091,1077,0,0,6,6,6,336,24,56,91,2,0,0,129,43958,19896,484,45,950,88200,25270,38.864758,-81.424903,REEDY,WV,"https://maps.googleapis.com/maps/api/place/radarsearch/json?location=38.864758,-81.424903&radius=40233&keyword=Grocery&key=AIzaSyA_Clyz3478YAUnsESNHE5dyktvvMoa-vw",70
236,40.2,38.1,42.3,9673,9413,110,0,35,0,5,2224,380,335,833,397,55,18,1706,40275,23127,4026,308,570,121700,25271,38.78851,-81.692539,RIPLEY,WV,"https://maps.googleapis.com/maps/api/place/radarsearch/json?location=38.78851,-81.692539&radius=40233&keyword=Grocery&key=AIzaSyA_Clyz3478YAUnsESNHE5dyktvvMoa-vw",106
237,46.5,36.4,47.7,1933,1795,0,0,0,0,0,466,57,118,67,58,0,0,610,31269,17834,805,6,,86100,25275,38.921509,-81.610584,SANDYVILLE,WV,"https://maps.googleapis.com/maps/api/place/radarsearch/json?location=38.921509,-81.610584&radius=40233&keyword=Grocery&key=AIzaSyA_Clyz3478YAUnsESNHE5dyktvvMoa-vw",104
238,43.5,41.7,45.7,7718,7579,3,11,9,103,58,2013,394,229,518,191,17,46,1667,29905,17795,2852,269,408,88700,25276,38.78208,-81.328691,SPENCER,WV,"https://maps.googleapis.com/maps/api/place/radarsearch/json?location=38.78208,-81.328691&radius=40233&keyword=Grocery&key=AIzaSyA_Clyz3478YAUnsESNHE5dyktvvMoa-vw",71
239,50.3,50.6,48.8,574,538,0,0,0,0,17,199,24,0,66,58,8,0,8,56375,23992,273,0,,133000,25285,38.539656,-81.101556,WALLBACK,WV,"https://maps.googleapis.com/maps/api/place/radarsearch/json?location=38.539656,-81.101556&radius=40233&keyword=Grocery&key=AIzaSyA_Clyz3478YAUnsESNHE5dyktvvMoa-vw",86
240,47,46.2,48,1544,1517,0,7,0,24,18,557,86,68,23,13,0,6,231,35966,20025,576,52,617,78400,25286,38.615199,-81.407985,WALTON,WV,"https://maps.googleapis.com/maps/api/place/radarsearch/json?location=38.615199,-81.407985&radius=40233&keyword=Grocery&key=AIzaSyA_Clyz3478YAUnsESNHE5dyktvvMoa-vw",139
241,40.6,51.3,38.1,1270,1259,0,0,0,0,0,290,178,73,68,8,0,0,69,26786,17587,331,32,,55400,25287,38.954715,-82.051426,WEST COLUMBIA,WV,"https://maps.googleapis.com/maps/api/place/radarsearch/json?location=38.954715,-82.051426&radius=40233&keyword=Grocery&key=AIzaSyA_Clyz3478YAUnsESNHE5dyktvvMoa-vw",93
242,46.5,44.3,48.6,2417,1635,293,6,70,67,13,410,83,158,348,194,71,67,719,26350,30695,1196,92,623,133300,25301,38.350719,-81.630359,CHARLESTON,WV,"https://maps.googleapis.com/maps/api/place/radarsearch/json?location=38.350719,-81.630359&radius=40233&keyword=Grocery&key=AIzaSyA_Clyz3478YAUnsESNHE5dyktvvMoa-vw",175
243,43,41.3,45.8,14795,12159,1444,5,28,151,118,2761,541,766,1636,1076,260,50,2651,45896,26338,7669,747,695,98800,25302,38.393184,-81.59547,CHARLESTON,WV,"https://maps.googleapis.com/maps/api/place/radarsearch/json?location=38.393184,-81.59547&radius=40233&keyword=Grocery&key=AIzaSyA_Clyz3478YAUnsESNHE5dyktvvMoa-vw",173
244,41.6,37.8,43.8,7101,6256,483,40,65,73,20,1101,108,384,1417,589,94,52,613,52233,30642,3924,169,689,129600,25303,38.359561,-81.68613,CHARLESTON,WV,"https://maps.googleapis.com/maps/api/place/radarsearch/json?location=38.359561,-81.68613&radius=40233&keyword=Grocery&key=AIzaSyA_Clyz3478YAUnsESNHE5dyktvvMoa-vw",171
245,43.4,38.2,49.4,8705,7670,475,4,297,107,15,1344,285,320,1364,680,509,184,968,55000,42247,4420,223,695,174800,25304,38.306056,-81.593194,CHARLESTON,WV,"https://maps.googleapis.com/maps/api/place/radarsearch/json?location=38.306056,-81.593194&radius=40233&keyword=Grocery&key=AIzaSyA_Clyz3478YAUnsESNHE5dyktvvMoa-vw",176
246,,,,0,0,0,0,0,0,0,0,0,0,0,0,0,0,0,,,0,0,,,25305,38.337629,-81.612742,CHARLESTON,WV,"https://maps.googleapis.com/maps/api/place/radarsearch/json?location=38.337629,-81.612742&radius=40233&keyword=Grocery&key=AIzaSyA_Clyz3478YAUnsESNHE5dyktvvMoa-vw",172
247,43.9,44.1,43.8,6428,5601,359,15,0,18,38,1881,392,264,269,98,44,0,1289,40464,20704,3096,351,699,80800,25306,38.312522,-81.499429,CHARLESTON,WV,"https://maps.googleapis.com/maps/api/place/radarsearch/json?location=38.312522,-81.499429&radius=40233&keyword=Grocery&key=AIzaSyA_Clyz3478YAUnsESNHE5dyktvvMoa-vw",179
248,40.9,38.8,44.6,13409,11811,566,47,97,99,63,3190,464,664,1383,695,296,90,2066,42361,26214,6036,291,602,100200,25309,38.308648,-81.749531,CHARLESTON,WV,"https://maps.googleapis.com/maps/api/place/radarsearch/json?location=38.308648,-81.749531&radius=40233&keyword=Grocery&key=AIzaSyA_Clyz3478YAUnsESNHE5dyktvvMoa-vw",179
249,42.3,41.7,42.8,10523,8524,974,9,199,223,51,1857,392,494,1082,568,214,162,2678,36171,28807,5264,468,669,98900,25311,38.366863,-81.557035,CHARLESTON,WV,"https://maps.googleapis.com/maps/api/place/radarsearch/json?location=38.366863,-81.557035&radius=40233&keyword=Grocery&key=AIzaSyA_Clyz3478YAUnsESNHE5dyktvvMoa-vw",177
250,41.7,40.6,42.8,14543,12510,1038,48,0,281,141,4233,844,709,964,318,88,27,2568,39354,22428,6704,576,640,92200,25312,38.448403,-81.659346,CHARLESTON,WV,"https://maps.googleapis.com/maps/api/place/radarsearch/json?location=38.448403,-81.659346&radius=40233&keyword=Grocery&key=AIzaSyA_Clyz3478YAUnsESNHE5dyktvvMoa-vw",161
251,35.6,35.8,35.6,13027,11903,453,0,396,265,46,2684,367,497,1816,748,115,69,1502,56989,29958,6651,292,768,137800,25313,38.419303,-81.766456,CHARLESTON,WV,"https://maps.googleapis.com/maps/api/place/radarsearch/json?location=38.419303,-81.766456&radius=40233&keyword=Grocery&key=AIzaSyA_Clyz3478YAUnsESNHE5dyktvvMoa-vw",160
252,44.5,42.7,46.3,16101,14818,203,0,597,176,44,1963,241,430,3432,1619,1258,330,1833,78456,47503,8360,297,854,205600,25314,38.308083,-81.640254,CHARLESTON,WV,"https://maps.googleapis.com/maps/api/place/radarsearch/json?location=38.308083,-81.640254&radius=40233&keyword=Grocery&key=AIzaSyA_Clyz3478YAUnsESNHE5dyktvvMoa-vw",172
253,45.1,41,47.9,3361,3109,86,0,0,9,10,1066,178,129,198,24,10,5,598,39236,20491,1517,150,606,75300,25315,38.222276,-81.56033,CHARLESTON,WV,"https://maps.googleapis.com/maps/api/place/radarsearch/json?location=38.222276,-81.56033&radius=40233&keyword=Grocery&key=AIzaSyA_Clyz3478YAUnsESNHE5dyktvvMoa-vw",183
254,43.5,42.2,44.3,6324,5889,0,4,9,0,16,1600,348,226,451,179,10,25,1014,39203,23076,2678,146,702,96800,25320,38.539851,-81.633191,CHARLESTON,WV,"https://maps.googleapis.com/maps/api/place/radarsearch/json?location=38.539851,-81.633191&radius=40233&keyword=Grocery&key=AIzaSyA_Clyz3478YAUnsESNHE5dyktvvMoa-vw",157
255,33.1,31.5,34.4,14675,11993,1794,47,90,902,81,2896,746,513,930,521,86,111,4229,35000,19485,6719,861,828,141400,25401,39.457153,-77.972619,MARTINSBURG,WV,"https://maps.googleapis.com/maps/api/place/radarsearch/json?location=39.457153,-77.972619&radius=40233&keyword=Grocery&key=AIzaSyA_Clyz3478YAUnsESNHE5dyktvvMoa-vw",164
256,37.9,37.2,38.5,13586,12220,899,0,166,441,38,2357,251,626,1800,702,87,30,956,75544,33270,7457,506,1067,200800,25403,39.47485,-78.011639,MARTINSBURG,WV,"https://maps.googleapis.com/maps/api/place/radarsearch/json?location=39.47485,-78.011639&radius=40233&keyword=Grocery&key=AIzaSyA_Clyz3478YAUnsESNHE5dyktvvMoa-vw",158
257,36.7,36,37,21859,18177,1722,41,482,953,129,4485,774,1279,1762,840,58,168,3142,50138,24272,10636,1151,904,150200,25404,39.483025,-77.890325,MARTINSBURG,WV,"https://maps.googleapis.com/maps/api/place/radarsearch/json?location=39.483025,-77.890325&radius=40233&keyword=Grocery&key=AIzaSyA_Clyz3478YAUnsESNHE5dyktvvMoa-vw",174
258,39.9,40.1,39.5,13551,11414,1431,32,71,590,64,2829,831,881,1071,493,52,0,1510,53822,24480,7000,590,1017,155600,25405,39.409184,-77.961535,MARTINSBURG,WV,"https://maps.googleapis.com/maps/api/place/radarsearch/json?location=39.409184,-77.961535&radius=40233&keyword=Grocery&key=AIzaSyA_Clyz3478YAUnsESNHE5dyktvvMoa-vw",162
259,46.3,46.2,46.7,12850,12553,94,4,58,164,197,3328,493,706,1091,577,83,89,1602,41077,23466,6067,702,707,168800,25411,39.548748,-78.22147,BERKELEY SPRINGS,WV,"https://maps.googleapis.com/maps/api/place/radarsearch/json?location=39.548748,-78.22147&radius=40233&keyword=Grocery&key=AIzaSyA_Clyz3478YAUnsESNHE5dyktvvMoa-vw",134
260,38.2,37.9,38.5,8514,7634,543,0,55,84,62,1930,429,481,621,160,40,46,957,63038,25609,4690,407,1056,162100,25413,39.310588,-78.055948,BUNKER HILL,WV,"https://maps.googleapis.com/maps/api/place/radarsearch/json?location=39.310588,-78.055948&radius=40233&keyword=Grocery&key=AIzaSyA_Clyz3478YAUnsESNHE5dyktvvMoa-vw",162
261,40.6,40.3,41.1,17254,14626,1660,0,554,1303,110,2980,371,733,2705,1059,101,149,2138,73963,34468,8857,792,877,223900,25414,39.242415,-77.865749,CHARLES TOWN,WV,"https://maps.googleapis.com/maps/api/place/radarsearch/json?location=39.242415,-77.865749&radius=40233&keyword=Grocery&key=AIzaSyA_Clyz3478YAUnsESNHE5dyktvvMoa-vw",161
262,41.3,38.6,43.2,9998,9017,696,0,71,402,56,2099,478,484,844,517,40,15,1300,63356,34472,5236,514,911,190600,25419,39.575796,-77.89571,FALLING WATERS,WV,"https://maps.googleapis.com/maps/api/place/radarsearch/json?location=39.575796,-77.89571&radius=40233&keyword=Grocery&key=AIzaSyA_Clyz3478YAUnsESNHE5dyktvvMoa-vw",171
263,42.5,41.9,42.9,4058,4058,0,0,0,216,0,1119,148,228,242,127,0,0,307,62857,25480,2173,135,917,127500,25420,39.381565,-78.115041,GERRARDSTOWN,WV,"https://maps.googleapis.com/maps/api/place/radarsearch/json?location=39.381565,-78.115041&radius=40233&keyword=Grocery&key=AIzaSyA_Clyz3478YAUnsESNHE5dyktvvMoa-vw",174
264,55.4,55.9,53.9,1717,1623,21,11,10,27,0,537,118,114,195,40,27,5,247,30071,24768,821,201,668,166000,25422,39.544988,-78.354289,GREAT CACAPON,WV,"https://maps.googleapis.com/maps/api/place/radarsearch/json?location=39.544988,-78.354289&radius=40233&keyword=Grocery&key=AIzaSyA_Clyz3478YAUnsESNHE5dyktvvMoa-vw",113
265,41.7,41.7,41.8,13505,12910,197,41,37,299,27,2392,615,684,1429,606,98,121,984,67593,30091,7061,571,1021,199000,25425,39.306168,-77.773612,HARPERS FERRY,WV,"https://maps.googleapis.com/maps/api/place/radarsearch/json?location=39.306168,-77.773612&radius=40233&keyword=Grocery&key=AIzaSyA_Clyz3478YAUnsESNHE5dyktvvMoa-vw",165
266,44.6,44.3,44.8,11823,11413,162,17,2,158,105,2797,685,638,1024,515,114,141,1212,55324,28136,6320,708,925,163700,25427,39.534237,-78.066125,HEDGESVILLE,WV,"https://maps.googleapis.com/maps/api/place/radarsearch/json?location=39.534237,-78.066125&radius=40233&keyword=Grocery&key=AIzaSyA_Clyz3478YAUnsESNHE5dyktvvMoa-vw",168
267,37.5,36.8,37.9,11078,10050,638,0,179,489,100,2630,544,480,937,337,20,15,1617,54969,24896,5374,587,1198,157100,25428,39.380635,-78.02221,INWOOD,WV,"https://maps.googleapis.com/maps/api/place/radarsearch/json?location=39.380635,-78.02221&radius=40233&keyword=Grocery&key=AIzaSyA_Clyz3478YAUnsESNHE5dyktvvMoa-vw",147
268,42.9,45.4,40.6,8214,7143,631,0,91,277,49,2110,573,258,818,151,69,32,922,59676,27406,4232,243,810,191700,25430,39.327184,-77.937913,KEARNEYSVILLE,WV,"https://maps.googleapis.com/maps/api/place/radarsearch/json?location=39.327184,-77.937913&radius=40233&keyword=Grocery&key=AIzaSyA_Clyz3478YAUnsESNHE5dyktvvMoa-vw",148
269,47.9,45.8,55.6,267,267,0,0,0,11,0,66,86,0,0,0,12,0,30,31338,23276,206,35,,84600,25431,39.483762,-78.574312,LEVELS,WV,"https://maps.googleapis.com/maps/api/place/radarsearch/json?location=39.483762,-78.574312&radius=40233&keyword=Grocery&key=AIzaSyA_Clyz3478YAUnsESNHE5dyktvvMoa-vw",160
270,49.8,45.7,68,71,71,0,0,0,0,0,36,16,0,0,0,0,0,9,36333,24913,49,9,,73100,25432,39.305755,-77.78429,MILLVILLE,WV,"https://maps.googleapis.com/maps/api/place/radarsearch/json?location=39.305755,-77.78429&radius=40233&keyword=Grocery&key=AIzaSyA_Clyz3478YAUnsESNHE5dyktvvMoa-vw",167
271,45.6,51.4,42.9,2883,2831,20,0,5,71,0,1175,138,90,65,20,0,0,688,31651,17436,1157,22,628,132800,25434,39.439723,-78.46111,PAW PAW,WV,"https://maps.googleapis.com/maps/api/place/radarsearch/json?location=39.439723,-78.46111&radius=40233&keyword=Grocery&key=AIzaSyA_Clyz3478YAUnsESNHE5dyktvvMoa-vw",149
272,33.6,33.9,29.1,292,292,0,0,0,0,0,86,31,0,0,0,0,0,25,30291,18459,144,0,383,,25437,39.427797,-78.570489,POINTS,WV,"https://maps.googleapis.com/maps/api/place/radarsearch/json?location=39.427797,-78.570489&radius=40233&keyword=Grocery&key=AIzaSyA_Clyz3478YAUnsESNHE5dyktvvMoa-vw",161
273,34.1,36.6,32.4,6932,5514,1038,0,144,702,39,1453,407,340,618,225,43,29,1170,44732,26250,3873,328,897,156600,25438,39.323441,-77.864008,RANSON,WV,"https://maps.googleapis.com/maps/api/place/radarsearch/json?location=39.323441,-77.864008&radius=40233&keyword=Grocery&key=AIzaSyA_Clyz3478YAUnsESNHE5dyktvvMoa-vw",173
274,44.2,44.6,43.7,1519,1430,13,0,21,9,0,222,43,61,205,132,25,0,71,81500,36582,810,38,832,187500,25442,39.370198,-77.832595,SHENANDOAH JUNCTION,WV,"https://maps.googleapis.com/maps/api/place/radarsearch/json?location=39.370198,-77.832595&radius=40233&keyword=Grocery&key=AIzaSyA_Clyz3478YAUnsESNHE5dyktvvMoa-vw",178
275,36.9,31.6,41.3,7442,6640,395,26,77,294,0,602,144,385,1006,719,72,173,570,67888,32844,3784,320,920,268800,25443,39.443745,-77.817226,SHEPHERDSTOWN,WV,"https://maps.googleapis.com/maps/api/place/radarsearch/json?location=39.443745,-77.817226&radius=40233&keyword=Grocery&key=AIzaSyA_Clyz3478YAUnsESNHE5dyktvvMoa-vw",165
276,54.6,51,84.2,180,180,0,0,0,0,0,67,36,0,0,16,0,0,13,30326,38464,99,0,,,25444,39.412854,-78.523889,SLANESVILLE,WV,"https://maps.googleapis.com/maps/api/place/radarsearch/json?location=39.412854,-78.523889&radius=40233&keyword=Grocery&key=AIzaSyA_Clyz3478YAUnsESNHE5dyktvvMoa-vw",150
277,40.1,42.4,37.8,1638,1625,0,0,0,0,0,361,118,52,160,42,0,0,508,69306,25433,928,147,,211600,25446,39.241588,-77.953405,SUMMIT POINT,WV,"https://maps.googleapis.com/maps/api/place/radarsearch/json?location=39.241588,-77.953405&radius=40233&keyword=Grocery&key=AIzaSyA_Clyz3478YAUnsESNHE5dyktvvMoa-vw",137
278,44.2,44.2,44.2,1255,1204,0,0,0,0,0,332,59,23,42,39,0,0,175,46676,20379,449,17,,89700,25501,38.153876,-81.969643,ALKOL,WV,"https://maps.googleapis.com/maps/api/place/radarsearch/json?location=38.153876,-81.969643&radius=40233&keyword=Grocery&key=AIzaSyA_Clyz3478YAUnsESNHE5dyktvvMoa-vw",173
279,49.9,51.4,47.5,1377,1335,0,0,0,0,0,432,76,0,42,6,0,0,229,49688,19783,455,80,616,73800,25502,38.656399,-82.117158,APPLE GROVE,WV,"https://maps.googleapis.com/maps/api/place/radarsearch/json?location=38.656399,-82.117158&radius=40233&keyword=Grocery&key=AIzaSyA_Clyz3478YAUnsESNHE5dyktvvMoa-vw",161
280,28.7,28,28.7,908,908,0,0,0,0,0,237,0,68,11,0,0,0,404,24886,9951,126,12,,62000,25503,38.612591,-82.120957,ASHTON,WV,"https://maps.googleapis.com/maps/api/place/radarsearch/json?location=38.612591,-82.120957&radius=40233&keyword=Grocery&key=AIzaSyA_Clyz3478YAUnsESNHE5dyktvvMoa-vw",161
281,39.1,37.1,41.4,13001,12179,294,5,211,237,114,2541,426,757,1393,506,269,113,1375,45934,25415,5604,377,781,133800,25504,38.376421,-82.270009,BARBOURSVILLE,WV,"https://maps.googleapis.com/maps/api/place/radarsearch/json?location=38.376421,-82.270009&radius=40233&keyword=Grocery&key=AIzaSyA_Clyz3478YAUnsESNHE5dyktvvMoa-vw",172
282,38.1,38.6,37.7,559,559,0,0,0,0,0,188,11,19,31,0,0,0,34,80395,19564,246,31,,137500,25505,38.012295,-82.03119,BIG CREEK,WV,"https://maps.googleapis.com/maps/api/place/radarsearch/json?location=38.012295,-82.03119&radius=40233&keyword=Grocery&key=AIzaSyA_Clyz3478YAUnsESNHE5dyktvvMoa-vw",128
283,43.8,43.3,44.2,4744,4716,0,0,0,0,129,1306,151,93,88,46,19,0,1941,23494,13956,1477,248,415,55200,25506,38.20472,-82.18702,BRANCHLAND,WV,"https://maps.googleapis.com/maps/api/place/radarsearch/json?location=38.20472,-82.18702&radius=40233&keyword=Grocery&key=AIzaSyA_Clyz3478YAUnsESNHE5dyktvvMoa-vw",163
284,47.5,45.5,48.6,894,892,1,0,0,13,0,164,20,79,90,56,16,4,153,45333,25184,393,38,500,105600,25507,38.395279,-82.563009,CEREDO,WV,"https://maps.googleapis.com/maps/api/place/radarsearch/json?location=38.395279,-82.563009&radius=40233&keyword=Grocery&key=AIzaSyA_Clyz3478YAUnsESNHE5dyktvvMoa-vw",178
285,40.6,39.8,41.4,9968,9910,14,0,0,78,47,2546,384,623,472,189,20,8,2000,35898,19815,3413,418,586,96600,25508,37.96394,-82.021969,CHAPMANVILLE,WV,"https://maps.googleapis.com/maps/api/place/radarsearch/json?location=37.96394,-82.021969&radius=40233&keyword=Grocery&key=AIzaSyA_Clyz3478YAUnsESNHE5dyktvvMoa-vw",113
286,40.1,35.2,41.9,5394,5322,0,0,32,0,28,1124,315,322,498,281,81,45,716,60192,26572,2641,58,762,113400,25510,38.382304,-82.082946,CULLODEN,WV,"https://maps.googleapis.com/maps/api/place/radarsearch/json?location=38.382304,-82.082946&radius=40233&keyword=Grocery&key=AIzaSyA_Clyz3478YAUnsESNHE5dyktvvMoa-vw",166
287,34.5,34.7,31.8,1005,993,0,0,0,0,13,208,71,23,12,0,0,0,361,22212,12092,298,41,800,,25511,38.051218,-82.33503,DUNLOW,WV,"https://maps.googleapis.com/maps/api/place/radarsearch/json?location=38.051218,-82.33503&radius=40233&keyword=Grocery&key=AIzaSyA_Clyz3478YAUnsESNHE5dyktvvMoa-vw",110
288,42.7,43.9,42.3,1160,1138,0,22,0,0,14,283,46,7,22,6,0,0,328,29429,12882,252,62,,66500,25512,38.184728,-82.327278,EAST LYNN,WV,"https://maps.googleapis.com/maps/api/place/radarsearch/json?location=38.184728,-82.327278&radius=40233&keyword=Grocery&key=AIzaSyA_Clyz3478YAUnsESNHE5dyktvvMoa-vw",166
289,43.1,41.9,44.2,3497,3466,5,0,0,28,66,1051,242,78,89,68,0,0,1093,31742,17874,1110,91,468,70500,25514,38.10026,-82.528704,FORT GAY,WV,"https://maps.googleapis.com/maps/api/place/radarsearch/json?location=38.10026,-82.528704&radius=40233&keyword=Grocery&key=AIzaSyA_Clyz3478YAUnsESNHE5dyktvvMoa-vw",168
290,42.7,42.8,42.4,2455,2455,0,0,0,147,8,801,72,205,122,32,0,0,376,33333,19426,1055,181,568,82100,25515,38.756623,-82.146875,GALLIPOLIS FERRY,WV,"https://maps.googleapis.com/maps/api/place/radarsearch/json?location=38.756623,-82.146875&radius=40233&keyword=Grocery&key=AIzaSyA_Clyz3478YAUnsESNHE5dyktvvMoa-vw",166
291,38.4,36.1,40.1,2368,2358,0,0,10,14,27,610,161,83,7,28,0,0,556,30665,16709,698,44,528,70800,25517,38.108275,-82.443166,GENOA,WV,"https://maps.googleapis.com/maps/api/place/radarsearch/json?location=38.108275,-82.443166&radius=40233&keyword=Grocery&key=AIzaSyA_Clyz3478YAUnsESNHE5dyktvvMoa-vw",158
292,40.2,42.6,37.1,1388,1388,0,0,0,0,21,383,14,116,13,0,0,0,174,35536,16954,545,15,,49500,25520,38.561148,-82.182864,GLENWOOD,WV,"https://maps.googleapis.com/maps/api/place/radarsearch/json?location=38.561148,-82.182864&radius=40233&keyword=Grocery&key=AIzaSyA_Clyz3478YAUnsESNHE5dyktvvMoa-vw",157
293,26.5,26.4,28.2,915,906,9,0,0,0,0,229,12,15,0,0,0,0,373,33603,12467,341,24,707,99800,25521,38.219782,-81.999378,GRIFFITHSVILLE,WV,"https://maps.googleapis.com/maps/api/place/radarsearch/json?location=38.219782,-81.999378&radius=40233&keyword=Grocery&key=AIzaSyA_Clyz3478YAUnsESNHE5dyktvvMoa-vw",175
294,47.7,45.5,49.6,2866,2860,0,0,6,0,11,720,60,39,258,146,61,12,531,39904,27268,1172,82,480,101300,25523,38.278729,-82.049132,HAMLIN,WV,"https://maps.googleapis.com/maps/api/place/radarsearch/json?location=38.278729,-82.049132&radius=40233&keyword=Grocery&key=AIzaSyA_Clyz3478YAUnsESNHE5dyktvvMoa-vw",170
295,43.8,44.6,42,3388,3285,31,0,8,0,73,899,196,205,78,73,25,0,613,45096,22997,1183,120,575,73600,25524,38.021624,-82.117351,HARTS,WV,"https://maps.googleapis.com/maps/api/place/radarsearch/json?location=38.021624,-82.117351&radius=40233&keyword=Grocery&key=AIzaSyA_Clyz3478YAUnsESNHE5dyktvvMoa-vw",111
296,40,40.4,39.2,22711,21507,634,74,138,240,116,4203,876,1562,2409,1573,387,138,1835,59119,30444,10551,355,776,180800,25526,38.394443,-81.991309,HURRICANE,WV,"https://maps.googleapis.com/maps/api/place/radarsearch/json?location=38.394443,-81.991309&radius=40233&keyword=Grocery&key=AIzaSyA_Clyz3478YAUnsESNHE5dyktvvMoa-vw",181
297,50.4,50.4,50.5,1149,1126,3,0,0,0,13,377,91,0,77,0,0,0,337,38864,18331,349,86,,71500,25529,38.152577,-81.846879,JULIAN,WV,"https://maps.googleapis.com/maps/api/place/radarsearch/json?location=38.152577,-81.846879&radius=40233&keyword=Grocery&key=AIzaSyA_Clyz3478YAUnsESNHE5dyktvvMoa-vw",169
298,45.4,37.2,48.9,4959,4789,19,0,0,96,38,1408,163,311,291,93,0,0,576,36149,21360,2386,88,451,83700,25530,38.35838,-82.576854,KENOVA,WV,"https://maps.googleapis.com/maps/api/place/radarsearch/json?location=38.35838,-82.576854&radius=40233&keyword=Grocery&key=AIzaSyA_Clyz3478YAUnsESNHE5dyktvvMoa-vw",174
299,53.2,53,73,160,160,0,0,0,0,0,10,29,0,0,0,0,0,116,9346,11718,29,0,,,25534,38.084433,-82.274956,KIAHSVILLE,WV,"https://maps.googleapis.com/maps/api/place/radarsearch/json?location=38.084433,-82.274956&radius=40233&keyword=Grocery&key=AIzaSyA_Clyz3478YAUnsESNHE5dyktvvMoa-vw",160
300,40.1,37.9,42.7,3041,2991,0,0,25,0,0,554,188,148,308,110,54,0,119,51750,25308,1233,15,1006,115500,25535,38.308557,-82.434852,LAVALETTE,WV,"https://maps.googleapis.com/maps/api/place/radarsearch/json?location=38.308557,-82.434852&radius=40233&keyword=Grocery&key=AIzaSyA_Clyz3478YAUnsESNHE5dyktvvMoa-vw",173
301,54.9,54.8,54.9,1533,1512,5,0,0,0,8,428,84,52,35,124,0,0,197,39844,24398,805,42,906,99600,25537,38.533383,-82.281971,LESAGE,WV,"https://maps.googleapis.com/maps/api/place/radarsearch/json?location=38.533383,-82.281971&radius=40233&keyword=Grocery&key=AIzaSyA_Clyz3478YAUnsESNHE5dyktvvMoa-vw",168
302,47.3,47.5,38.6,240,240,0,0,0,0,0,58,40,26,0,0,0,0,28,28702,14949,125,19,,9999,25540,38.182609,-82.156471,MIDKIFF,WV,"https://maps.googleapis.com/maps/api/place/radarsearch/json?location=38.182609,-82.156471&radius=40233&keyword=Grocery&key=AIzaSyA_Clyz3478YAUnsESNHE5dyktvvMoa-vw",153
303,42.9,41.9,44.3,8482,8203,22,54,78,66,45,2210,421,515,666,377,80,79,1089,46557,25003,3847,251,648,129500,25541,38.480587,-82.130164,MILTON,WV,"https://maps.googleapis.com/maps/api/place/radarsearch/json?location=38.480587,-82.130164&radius=40233&keyword=Grocery&key=AIzaSyA_Clyz3478YAUnsESNHE5dyktvvMoa-vw",160
304,42.4,38.7,45.4,5289,5227,37,15,0,0,25,1366,123,256,439,219,22,76,335,60821,28817,2284,35,742,138600,25545,38.458992,-82.217439,ONA,WV,"https://maps.googleapis.com/maps/api/place/radarsearch/json?location=38.458992,-82.217439&radius=40233&keyword=Grocery&key=AIzaSyA_Clyz3478YAUnsESNHE5dyktvvMoa-vw",161
305,44.6,44.9,41.8,1036,1026,0,0,0,10,0,183,86,82,38,0,0,0,206,,19895,322,52,,112800,25547,37.916034,-81.965478,PECKS MILL,WV,"https://maps.googleapis.com/maps/api/place/radarsearch/json?location=37.916034,-81.965478&radius=40233&keyword=Grocery&key=AIzaSyA_Clyz3478YAUnsESNHE5dyktvvMoa-vw",103
306,44.9,40.8,47.6,8893,8577,169,0,0,103,0,2465,439,601,545,197,24,0,1319,38588,20929,3354,204,477,89400,25550,38.863326,-82.067437,POINT PLEASANT,WV,"https://maps.googleapis.com/maps/api/place/radarsearch/json?location=38.863326,-82.067437&radius=40233&keyword=Grocery&key=AIzaSyA_Clyz3478YAUnsESNHE5dyktvvMoa-vw",96
307,51.1,51.1,51,1910,1910,0,0,0,0,8,599,45,32,68,93,7,9,88,42619,25067,735,40,634,46300,25555,38.213877,-82.549652,PRICHARD,WV,"https://maps.googleapis.com/maps/api/place/radarsearch/json?location=38.213877,-82.549652&radius=40233&keyword=Grocery&key=AIzaSyA_Clyz3478YAUnsESNHE5dyktvvMoa-vw",172
308,47.1,47.7,41.6,1528,1528,0,0,0,0,29,370,137,18,71,11,19,0,271,38983,18235,488,7,,37500,25557,38.105832,-82.171951,RANGER,WV,"https://maps.googleapis.com/maps/api/place/radarsearch/json?location=38.105832,-82.171951&radius=40233&keyword=Grocery&key=AIzaSyA_Clyz3478YAUnsESNHE5dyktvvMoa-vw",165
309,42.7,41.5,46.6,1979,1979,0,0,0,0,0,675,50,33,113,68,0,0,64,48229,22275,807,81,,105500,25559,38.324948,-82.229139,SALT ROCK,WV,"https://maps.googleapis.com/maps/api/place/radarsearch/json?location=38.324948,-82.229139&radius=40233&keyword=Grocery&key=AIzaSyA_Clyz3478YAUnsESNHE5dyktvvMoa-vw",170
310,40.1,39.6,40.7,8228,7875,207,0,0,137,14,1704,235,558,1067,679,96,122,458,70714,35938,4211,263,894,186200,25560,38.445189,-81.899312,SCOTT DEPOT,WV,"https://maps.googleapis.com/maps/api/place/radarsearch/json?location=38.445189,-81.899312&radius=40233&keyword=Grocery&key=AIzaSyA_Clyz3478YAUnsESNHE5dyktvvMoa-vw",169
311,28.4,27.1,30.2,2083,2083,0,0,0,0,48,278,42,87,29,22,0,0,557,31433,14037,701,37,698,77900,25564,38.272188,-81.901012,SOD,WV,"https://maps.googleapis.com/maps/api/place/radarsearch/json?location=38.272188,-81.901012&radius=40233&keyword=Grocery&key=AIzaSyA_Clyz3478YAUnsESNHE5dyktvvMoa-vw",171
312,37.7,33.7,38,630,630,0,0,0,0,0,243,47,1,14,0,0,0,176,37973,19630,269,11,,56100,25565,38.102343,-81.964488,SPURLOCKVILLE,WV,"https://maps.googleapis.com/maps/api/place/radarsearch/json?location=38.102343,-81.964488&radius=40233&keyword=Grocery&key=AIzaSyA_Clyz3478YAUnsESNHE5dyktvvMoa-vw",165
313,54.7,50.7,56.5,880,869,0,0,0,0,0,391,61,8,35,19,55,0,241,26944,18137,296,28,,67400,25567,38.215954,-81.870097,SUMERCO,WV,"https://maps.googleapis.com/maps/api/place/radarsearch/json?location=38.215954,-81.870097&radius=40233&keyword=Grocery&key=AIzaSyA_Clyz3478YAUnsESNHE5dyktvvMoa-vw",173
314,43.2,43,43.3,6576,6453,0,0,0,34,0,1694,362,225,267,103,16,7,2210,26609,14303,1965,345,523,69900,25570,38.218917,-82.425284,WAYNE,WV,"https://maps.googleapis.com/maps/api/place/radarsearch/json?location=38.218917,-82.425284&radius=40233&keyword=Grocery&key=AIzaSyA_Clyz3478YAUnsESNHE5dyktvvMoa-vw",172
315,42.1,37.3,44.6,1886,1840,0,38,0,24,13,481,65,119,94,14,0,0,669,34432,19846,794,85,720,98000,25571,38.313493,-82.155813,WEST HAMLIN,WV,"https://maps.googleapis.com/maps/api/place/radarsearch/json?location=38.313493,-82.155813&radius=40233&keyword=Grocery&key=AIzaSyA_Clyz3478YAUnsESNHE5dyktvvMoa-vw",155
316,49.7,50.9,48.5,1014,980,34,0,0,0,0,307,119,0,0,30,0,0,343,24143,19516,343,26,,113800,25573,38.23218,-81.941115,YAWKEY,WV,"https://maps.googleapis.com/maps/api/place/radarsearch/json?location=38.23218,-81.941115&radius=40233&keyword=Grocery&key=AIzaSyA_Clyz3478YAUnsESNHE5dyktvvMoa-vw",174
317,42.1,40.8,45.6,5008,4635,149,0,106,66,78,1146,187,208,285,102,45,11,920,44614,22204,2128,255,542,80400,25601,37.862732,-82.009247,LOGAN,WV,"https://maps.googleapis.com/maps/api/place/radarsearch/json?location=37.862732,-82.009247&radius=40233&keyword=Grocery&key=AIzaSyA_Clyz3478YAUnsESNHE5dyktvvMoa-vw",86
318,35.8,34.5,39.5,983,983,0,0,0,11,18,244,47,0,48,20,0,0,254,36111,20418,313,33,,82000,25606,37.764974,-81.819803,ACCOVILLE,WV,"https://maps.googleapis.com/maps/api/place/radarsearch/json?location=37.764974,-81.819803&radius=40233&keyword=Grocery&key=AIzaSyA_Clyz3478YAUnsESNHE5dyktvvMoa-vw",95
319,37.5,28.7,45.4,981,873,51,0,0,0,7,311,67,67,4,7,0,0,201,34702,20269,407,25,240,81400,25607,37.784917,-81.784145,AMHERSTDALE,WV,"https://maps.googleapis.com/maps/api/place/radarsearch/json?location=37.784917,-81.784145&radius=40233&keyword=Grocery&key=AIzaSyA_Clyz3478YAUnsESNHE5dyktvvMoa-vw",83
320,40.3,44.5,36.5,1123,1113,0,0,0,0,0,304,28,32,21,19,0,0,357,30845,18531,286,9,517,45200,25608,37.574102,-81.889362,BAISDEN,WV,"https://maps.googleapis.com/maps/api/place/radarsearch/json?location=37.574102,-81.889362&radius=40233&keyword=Grocery&key=AIzaSyA_Clyz3478YAUnsESNHE5dyktvvMoa-vw",89
321,42.3,42.4,42.2,1187,1187,0,0,0,84,0,204,53,0,17,0,0,0,11,65521,20301,365,18,772,93300,25611,37.688915,-81.840825,BRUNO,WV,"https://maps.googleapis.com/maps/api/place/radarsearch/json?location=37.688915,-81.840825&radius=40233&keyword=Grocery&key=AIzaSyA_Clyz3478YAUnsESNHE5dyktvvMoa-vw",77
322,45.1,44.7,45.8,744,724,5,0,0,15,0,136,54,0,76,25,0,0,130,39516,24049,296,10,,115900,25617,37.721101,-81.77832,DAVIN,WV,"https://maps.googleapis.com/maps/api/place/radarsearch/json?location=37.721101,-81.77832&radius=40233&keyword=Grocery&key=AIzaSyA_Clyz3478YAUnsESNHE5dyktvvMoa-vw",80
323,44.3,45,42.2,2079,2079,0,0,0,0,35,424,90,127,89,65,0,0,409,32468,19527,719,106,583,56600,25621,37.626932,-81.941828,GILBERT,WV,"https://maps.googleapis.com/maps/api/place/radarsearch/json?location=37.626932,-81.941828&radius=40233&keyword=Grocery&key=AIzaSyA_Clyz3478YAUnsESNHE5dyktvvMoa-vw",93
324,42.8,28.1,60.1,317,317,0,0,0,0,0,121,0,18,0,0,0,0,126,,22470,174,48,,,25624,37.900691,-81.981776,HENLAWSON,WV,"https://maps.googleapis.com/maps/api/place/radarsearch/json?location=37.900691,-81.981776&radius=40233&keyword=Grocery&key=AIzaSyA_Clyz3478YAUnsESNHE5dyktvvMoa-vw",98
325,40.2,37.5,45.7,1411,1179,229,3,0,5,15,153,95,135,77,15,0,0,118,32703,20836,431,0,820,79700,25625,37.81936,-82.081236,HOLDEN,WV,"https://maps.googleapis.com/maps/api/place/radarsearch/json?location=37.81936,-82.081236&radius=40233&keyword=Grocery&key=AIzaSyA_Clyz3478YAUnsESNHE5dyktvvMoa-vw",100
326,52.1,32.9,55.3,522,522,0,0,0,0,7,117,45,30,27,0,0,0,89,34769,20999,151,0,99,84400,25628,37.768114,-81.862466,KISTLER,WV,"https://maps.googleapis.com/maps/api/place/radarsearch/json?location=37.768114,-81.862466&radius=40233&keyword=Grocery&key=AIzaSyA_Clyz3478YAUnsESNHE5dyktvvMoa-vw",92
327,41.1,38.9,41.2,899,891,8,0,0,0,5,241,20,32,0,0,0,0,339,38750,25469,276,21,600,60700,25630,37.788222,-81.691063,LORADO,WV,"https://maps.googleapis.com/maps/api/place/radarsearch/json?location=37.788222,-81.691063&radius=40233&keyword=Grocery&key=AIzaSyA_Clyz3478YAUnsESNHE5dyktvvMoa-vw",69
328,45.3,53,44.3,504,493,0,0,0,0,35,261,12,26,0,0,0,0,120,23750,14495,227,107,,48500,25632,37.729709,-81.924055,LYBURN,WV,"https://maps.googleapis.com/maps/api/place/radarsearch/json?location=37.729709,-81.924055&radius=40233&keyword=Grocery&key=AIzaSyA_Clyz3478YAUnsESNHE5dyktvvMoa-vw",87
329,49.2,45.5,51.6,650,650,0,0,0,0,11,137,21,24,25,18,0,0,110,41667,19808,272,7,,31200,25634,37.735864,-81.84059,MALLORY,WV,"https://maps.googleapis.com/maps/api/place/radarsearch/json?location=37.735864,-81.84059&radius=40233&keyword=Grocery&key=AIzaSyA_Clyz3478YAUnsESNHE5dyktvvMoa-vw",85
330,38.6,34.5,43.4,1403,1324,42,0,24,0,12,385,17,67,63,30,12,4,265,53135,23696,619,57,525,89400,25635,37.707103,-81.885979,MAN,WV,"https://maps.googleapis.com/maps/api/place/radarsearch/json?location=37.707103,-81.885979&radius=40233&keyword=Grocery&key=AIzaSyA_Clyz3478YAUnsESNHE5dyktvvMoa-vw",82
331,46.4,38.8,56.4,809,774,35,0,0,7,0,255,23,59,10,14,0,0,117,38347,17458,239,0,503,74000,25637,37.861773,-82.029479,MOUNT GAY,WV,"https://maps.googleapis.com/maps/api/place/radarsearch/json?location=37.861773,-82.029479&radius=40233&keyword=Grocery&key=AIzaSyA_Clyz3478YAUnsESNHE5dyktvvMoa-vw",85
332,50.7,50.5,51.5,1056,1056,0,0,0,0,0,318,52,24,72,0,0,0,132,26042,17412,371,0,,72500,25638,37.758843,-81.990584,OMAR,WV,"https://maps.googleapis.com/maps/api/place/radarsearch/json?location=37.758843,-81.990584&radius=40233&keyword=Grocery&key=AIzaSyA_Clyz3478YAUnsESNHE5dyktvvMoa-vw",98
333,57.6,54.2,66.1,474,474,0,0,0,0,0,222,41,13,0,0,0,0,121,18456,18271,159,33,618,57600,25639,37.881353,-81.958345,PEACH CREEK,WV,"https://maps.googleapis.com/maps/api/place/radarsearch/json?location=37.881353,-81.958345&radius=40233&keyword=Grocery&key=AIzaSyA_Clyz3478YAUnsESNHE5dyktvvMoa-vw",95
334,27.2,17.5,28.8,464,464,0,0,0,0,0,101,25,0,0,0,0,0,269,,8618,122,21,,56000,25644,37.704742,-82.022096,SARAH ANN,WV,"https://maps.googleapis.com/maps/api/place/radarsearch/json?location=37.704742,-82.022096&radius=40233&keyword=Grocery&key=AIzaSyA_Clyz3478YAUnsESNHE5dyktvvMoa-vw",95
335,36.8,43.6,33.4,1023,937,0,86,0,0,0,172,24,124,55,27,11,0,231,32283,24348,396,33,613,68600,25646,37.847286,-81.883987,STOLLINGS,WV,"https://maps.googleapis.com/maps/api/place/radarsearch/json?location=37.847286,-81.883987&radius=40233&keyword=Grocery&key=AIzaSyA_Clyz3478YAUnsESNHE5dyktvvMoa-vw",86
